id,label,country,Lat ,Lon
BIN,Bamyan,Afghanistan,34.8,67.816667
BST,Lashkar Gah,Afghanistan,31.58299802,64.35999955
CCN,Chaghcharan,Afghanistan,34.5167011,65.25000063
DAZ,Darwaz,Afghanistan,38.466667,70.883333
FAH,Farah,Afghanistan,32.39172955,62.09681921
FBD,Faizabad,Afghanistan,26.75039431,82.17001257
GRG,Gardez,Afghanistan,33.616667,69.116667
GZI,Ghazni,Afghanistan,33.56331179,68.41782873
HEA,Herat,Afghanistan,34.33000917,62.16999304
IMZ,Nimroz,Afghanistan,31.1,61.933333
JAA,Jalalabad,Afghanistan,34.44152692,70.43610347
KBL,Kabul,Afghanistan,34.51669029,69.18326005
KDH,Kandahar,Afghanistan,31.61002016,65.69494584
KHT,Khost,Afghanistan,33.333333,69.95
KUR,Kuran-O-Munjan,Afghanistan,38.4,71.116667
KWH,Khwahan,Afghanistan,37.883333,70.2
LQN,Qala Nau,Afghanistan,34.95,63.666667
MMZ,Maimanah,Afghanistan,35.916667,64.733333
MZR,Mazar-e Sharif,Afghanistan,36.69999371,67.10002803
OAI,Bagram,Afghanistan,34.94,69.273
OAS,Sharana,Afghanistan,33.13,68.76
OAZ,Camp Bastion,Afghanistan,31.85,64.2
SBF,Sardeh Band,Afghanistan,33.297778,68.631667
SGA,Sheghnan,Afghanistan,38.033333,71.716667
TII,Tarin Kot,Afghanistan,32.628611,65.8775
TQN,Taluqan,Afghanistan,36.5,69.5
UND,Kunduz,Afghanistan,36.65,68.883333
URZ,Uruzgan,Afghanistan,32.9,66.616667
ZAJ,Zaranj,Afghanistan,31.11200108,61.88699752
TIA,Tirana,Albania,41.32754071,19.81888301
AAE,Annaba,Algeria,36.92000612,7.759980834
ALG,Algiers,Algeria,36.7630648,3.05055253
AZR,Adrar,Algeria,27.86999005,-0.289967083
BJA,Bejaia,Algeria,36.76037762,5.070015827
BLJ,Batna,Algeria,35.56995933,6.170000365
BMW,Bordj Mokhtar,Algeria,21.133333,1.066667
BSK,Biskra,Algeria,34.85997683,5.73002722
BUJ,Ain Eddis,Algeria,35.3325,4.206389
CBH,Bechar,Algeria,31.61110537,-2.230003704
CFK,Chlef,Algeria,36.17041363,1.319960489
CZL,Constantine,Algeria,36.35998863,6.599948281
DJG,Djanet,Algeria,24.5529057,9.482252969
EBH,El Bayadh,Algeria,33.6903583,1.009953571
ELG,El Golea,Algeria,30.56662132,2.883327595
ELU,El Oued,Algeria,33.37040367,6.859984089
GHA,Ghardaia,Algeria,32.48999229,3.669997923
GJL,Jijel,Algeria,36.82199703,5.76600356
HME,Hassi Messaoud,Algeria,31.70234011,6.054451862
IAM,In Amenas,Algeria,28.051667,9.642778
INF,Newark Liberty International,Algeria,19.566667,5.75
INZ,In Salah,Algeria,27.25,2.516667
KDF,Kouba,Algeria,7.8,15.65
MQV,Mostaganem,Algeria,35.940376,0.089983885
MUW,Mascara,Algeria,35.40040895,0.14003251
MZW,Mecheria,Algeria,33.55,-0.283333
OGX,Ouargla,Algeria,31.96997235,5.340025186
ORN,Oran,Algeria,35.616667,-0.616667
QSF,Setif,Algeria,36.18002545,5.399969847
SKI,Skikda,Algeria,36.88042198,6.899981647
TAF,Tafaraoui,Algeria,35.716667,-0.716667
TEE,Tebessa,Algeria,35.41043418,8.120010537
TGR,Touggourt,Algeria,33.0999809,6.05998124
TID,Tiaret,Algeria,28.0,-2.0
TIN,Tindouf,Algeria,27.67418805,-8.147782025
TLM,Tlemcen,Algeria,34.878333,-1.315
TMR,Tamanrasset,Algeria,22.78500327,5.522804727
TMX,Timimoun,Algeria,29.23652163,0.269998737
VVZ,Illizi,Algeria,26.48335634,8.466604369
FTI,Fitiuta,American Samoa,-14.216667,-169.45
OFU,Ofu,American Samoa,-14.183333,-169.7
PPG,Pago Pago,American Samoa,-14.2766105,-170.7066451
TAV,Tau,American Samoa,-14.229167,-169.511111
ALV,Andorra La Vella H/P,Andorra,42.5,1.516667
AAZ,Ambriz,Angola,-7.85498696,13.12502803
ANL,Andulo,Angola,-11.5,16.75
BUG,Gen V Deslandes,Angola,-12.608889,13.403611
CAB,Cabinda,Angola,-5.55962319,12.18999467
CAV,Cazombo,Angola,-11.88957273,22.90003861
CBT,Catumbela,Angola,-12.483333,13.483333
CEO,Waco Kungo,Angola,-13.333333,14.5
CFF,Cafunfo,Angola,-8.766667,18.0
CNZ,Cangamba,Angola,-13.69959145,19.86001745
CTI,Cuito Cuanavale,Angola,-15.166667,19.166667
DRC,Dirico,Angola,-17.966667,20.783333
DUE,Dundo,Angola,-7.380028871,20.82998409
GGC,Lumbala,Angola,-14.116667,21.433333
GXG,Negage,Angola,-7.516667,15.833333
JMB,Jamba,Angola,-14.700278,16.083333
KNP,Capanda,Angola,-9.766944,15.450278
LAD,Luanda,Angola,-8.838286114,13.23442704
LBZ,Lukapa,Angola,-8.416667,20.75
LUO,Luena,Angola,-11.79004393,19.90001501
LZM,Luzamba,Angola,-4.966667,23.45
MEG,Malange,Angola,-9.533333,16.333333
MSZ,Namibe,Angola,-15.19004311,12.16002234
NDD,Sumbe,Angola,-11.21002765,13.8499967
NDF,Ndalatandos,Angola,-13.783333,16.716667
NGV,Ngiva,Angola,23.076111,34.374444
NOV,Huambo,Angola,-12.74998533,15.76000932
PBN,Porto Amboim,Angola,-10.7,13.75
PGI,Chitato,Angola,-7.35,20.95
SDD,Lubango,Angola,-14.91000853,13.49001868
SPP,Menongue,Angola,-14.66661253,17.69999426
SVP,Kuito,Angola,-12.38003375,16.93998897
SZA,Soyo,Angola,-6.129614239,12.36998368
UAL,Luau,Angola,-10.7095414,22.23000199
UGO,Uige,Angola,-7.620014222,15.04997514
VHC,Saurimo,Angola,-9.659579652,20.39001094
VPE,Ondjiva,Angola,-17.06961831,15.73003699
XGN,Xangongo,Angola,-16.74002602,14.96998002
AXA,Anguilla,"Anguilla, Leeward Islands",18.204722,-63.055
TNM,Teniente R. Marsh Martin,Antarctica,62.190833,-58.986667
BBQ,Barbuda,Antigua and Barbuda,17.6,-61.783333
ANU,Antigua,"Antigua and Barbuda, Leeward Islands",17.136667,-61.792778
AEP,Buenos Aires,Argentina,-34.559167,-58.415556
AFA,San Rafael,Argentina,-16.77950682,-60.6799502
AOL,Paso De Los Libres,Argentina,-29.683333,-57.15
APZ,Zapala,Argentina,-38.90001707,-70.06666406
ARR,Alto Rio Senguerr,Argentina,-45.166667,-71.0
BHI,Bahia Blanca,Argentina,-38.74002684,-62.2650214
BRC,San Carlos Bariloche,Argentina,-41.133333,-71.166667
CCT,Colonia Catriel,Argentina,-37.85,-67.866667
CLX,Clorinda,Argentina,-25.333333,-57.666667
CNQ,Camba Punta,Argentina,-27.45,-58.766667
CNT,Charata,Argentina,-27.21628579,-61.19999597
COR,Cordoba (AR),Argentina,-31.4,-64.2
CPC,San Martin los Andes,Argentina,-40.083333,-71.133333
CPG,Carmen De Patagones,Argentina,-40.8,-62.983333
CRD,Comodoro Rivadavia,Argentina,-45.87003091,-67.49999903
CRR,Ceres,Argentina,-15.30331785,-49.60519983
CSZ,Brigadier Hector Ruiz,Argentina,-37.466667,-61.916667
CTC,Catamarca,Argentina,-28.47000771,-65.78000065
CUT,Cutral,Argentina,-38.966667,-69.25
CVH,Caviahue,Argentina,-37.916667,-71.013889
CVI,Caleta Olivia,Argentina,-46.433333,-67.516667
EHL,El Bolson,Argentina,-41.966667,-71.516667
ELO,Eldorado,Argentina,-26.20001707,-54.59998539
EMX,El Maiten,Argentina,-42.05000568,-71.16662276
EPA,El Palomar,Argentina,-28.083333,-64.283333
EQS,Esquel,Argentina,-42.90003131,-71.31661361
EZE,Buenos Aires,Argentina,-34.822222,-58.535833
FMA,Formosa,Argentina,-15.53947915,-47.33998926
FTE,El Calafate,Argentina,-50.33332436,-72.30001612
GGS,Gobernador Gregores,Argentina,-48.76659829,-70.25001205
GHU,Gualeguaychu,Argentina,-33.02001422,-58.52000452
GNR,General Roca,Argentina,-39.01995807,-67.60996647
GPO,General Pico,Argentina,-35.65959471,-63.77001998
IGB,Ingeniero Jacobacci,Argentina,-41.30002562,-69.58330855
IGR,Iguazu,Argentina,-25.583333,-54.333333
ING,Lago Argentino,Argentina,-50.333333,-72.25
IRJ,La Rioja,Argentina,-29.40995034,-66.84996118
JNI,Junin,Argentina,-34.58456989,-60.95887374
JSM,Jose De San Martin,Argentina,-44.033333,-70.466667
JUJ,Jujuy,Argentina,-24.233333,-65.266667
LCM,La Cumbre,Argentina,-31.0,-64.533333
LCP,Loncopue,Argentina,-38.066667,-70.616667
LGS,Malargue,Argentina,-35.46611815,-69.58330855
LHS,Las Heras,Argentina,-32.82503904,-68.80167668
LLS,Las Lomitas,Argentina,-24.69959186,-60.60000676
LMD,Los Menucos,Argentina,-40.833333,-68.133333
LPG,La Plata,Argentina,-34.90961465,-57.95996118
LUQ,San Luis,Argentina,-33.3,-66.3
MCS,Monte Caseros,Argentina,-30.266667,-57.633333
MDQ,Mar del Plata,Argentina,-38.00002033,-57.57998438
MDX,Mercedes,Argentina,-33.25953449,-58.02998275
MDZ,Mendoza,Argentina,-32.88333006,-68.81661117
MJR,Miramar,Argentina,-38.216667,-57.866667
MQD,Maquinchao,Argentina,-41.25,-68.733333
NCJ,Sunchales,Argentina,-30.93290648,-61.56661442
NEC,Necochea,Argentina,-38.55998615,-58.74999048
NQN,Neuquen,Argentina,-38.95003986,-68.05999068
OES,San Antonio Oeste,Argentina,-40.73287677,-64.93328231
OLN,Colonia Sarmiento,Argentina,-45.583333,-69.0
ORA,Oran,Argentina,-23.1,-64.3
OVR,Olavarria,Argentina,-36.90003579,-60.3299974
OYA,Goya,Argentina,-29.13999266,-59.26998458
PEH,Pehuajo,Argentina,-35.8,-61.883333
PMQ,Perito Moreno,Argentina,-46.60001219,-70.93335535
PMY,Puerto Madryn,Argentina,-42.77001341,-65.04001998
PRA,Parana,Argentina,-31.73332273,-60.53334416
PRQ,Pres. Roque Saenz Pena,Argentina,-26.766667,-60.266667
PSS,Posadas,Argentina,-27.3578321,-55.88510735
PUD,Puerto Deseado,Argentina,-47.75001951,-65.89996749
RCQ,Reconquista,Argentina,-29.13952757,-59.65001306
RCU,Rio Cuarto,Argentina,-33.13003335,-64.34998458
REL,Trelew,Argentina,-43.25003579,-65.3299506
RES,Resistencia,Argentina,-27.45999184,-58.99002751
RGA,Rio Grande (AR),Argentina,-53.783333,-67.766667
RGL,Rio Gallegos,Argentina,-51.63329669,-69.21658675
RHD,Termas de Rio Hondo,Argentina,-27.466667,-64.916667
RLO,Merlo,Argentina,-32.35,-65.033333
ROS,Rosario (AR),Argentina,-2.940041485,-44.26002222
ROY,Rio Mayo,Argentina,-45.719444,-70.251389
RSA,Santa Rosa (AR),Argentina,-36.616667,-64.283333
RYO,Rio Turbio,Argentina,-51.6,-72.216667
SDE,Santiago del Estero,Argentina,-27.78333128,-64.26665633
SFN,Santa Fe (AR),Argentina,-31.716667,-60.816667
SGV,Sierra Grande,Argentina,-41.5,-65.35
SLA,Salta,Argentina,-24.78335936,-65.41663782
SST,Santa Teresita,Argentina,-35.266667,-59.633333
SZQ,Saenz Pena,Argentina,-34.616667,-58.533333
TDL,Tandil,Argentina,-37.32001015,-59.15004358
TTG,Tartagal,Argentina,-22.55000731,-63.81001754
TUC,Tucuman,Argentina,-26.816667,-65.216667
UAQ,San Juan (AR),Argentina,-31.5,-68.5
USH,Ushuaia,Argentina,-54.79000324,-68.31000126
UZU,Curuzu Cuatia,Argentina,-29.783333,-58.016667
VCF,Valcheta,Argentina,-40.7,-66.15
VDM,Viedma,Argentina,-40.79995278,-63.0000153
VDR,Villa Dolores,Argentina,-31.95,-65.15
VGS,General Villegas,Argentina,-35.033333,-63.016667
VLG,Villa Gesell,Argentina,-38.016667,-57.583333
VME,Villa Mercedes,Argentina,-33.633333,-65.416667
EVN,Yerevan,Armenia,40.18115074,44.51355139
LWN,Gyumri,Armenia,40.78943402,43.84749385
AUA,Aruba,Aruba,12.5,-70.016667
AAB,Arrabury,Australia,-26.75,141.0
ABG,Abingdon,Australia,-17.666667,143.2
ABH,Alpha,Australia,-23.7,146.583333
ABM,Bamaga,Australia,-10.950833,142.459444
ABX,Albury,Australia,-36.06003538,146.9200138
ADL,Adelaide,Australia,-34.945,138.530556
ADO,Andamooka,Australia,-30.43097329,137.1655704
AGW,Agnew,Australia,-12.15,142.15
AGY,Argyle Downs,Australia,-16.35,128.75
ALH,Albany,Australia,-35.0,117.9
AMT,Amata,Australia,-26.2,131.116667
AMX,Ammaroo,Australia,-21.74,135.24
ANZ,Angus Downs,Australia,-25.083333,132.166667
ARM,Armidale,Australia,-30.51231199,151.667476
ARY,Ararat,Australia,-37.27954751,142.9099743
ASP,Alice Springs,Australia,-23.8,133.883333
AUD,Augustus Downs,Australia,-18.666667,139.933333
AUU,Aurukun,Australia,-13.353889,141.720833
AVG,Auvergne,Australia,-15.75,129.916667
AVV,Melbourne (AU),Australia,-38.033333,144.466667
AWN,Alton Downs,Australia,-26.483333,139.316667
AWP,Austral Downs,Australia,-20.333333,137.25
AXC,Aramac,Australia,-23.083333,145.25
AYD,Alroy Downs,Australia,-19.3,135.95
AYL,Anthony Lagoon,Australia,-18.016667,135.55
AYQ,Ayers Rock,Australia,-25.333333,131.033333
AYR,Ayr,Australia,-19.57024087,147.3994677
BBE,Big Bell,Australia,-27.416667,117.666667
BCI,Barcaldine,Australia,-23.56617267,145.2833695
BCK,Bolwarra,Australia,-17.4,144.166667
BCZ,Bickerton Island,Australia,-13.783333,137.8
BDB,Bundaberg,Australia,-24.87906411,152.3508968
BDD,Badu Island,Australia,-10.116667,142.133333
BDW,Bedford Downs,Australia,-17.3,127.466667
BEE,Beagle Bay,Australia,-12.983333,141.6
BEO,Belmont,Australia,-33.033333,151.666667
BEU,Bedourie,Australia,-24.34958738,139.4666186
BFC,Bloomfield River,Australia,-15.9,145.333333
BHQ,Broken Hill,Australia,-31.94995034,141.4331136
BHS,Bathurst (AU),Australia,-33.416667,149.65
BHT,Brighton Downs,Australia,-23.5,141.633333
BIP,Bulimba,Australia,-16.15,143.75
BIW,Billiluna,Australia,-19.583333,127.633333
BKP,Barkly Downs,Australia,-21.033333,138.25
BKQ,Blackall,Australia,-24.416667,145.416667
BLN,Benalla,Australia,-36.55,145.983333
BLS,Bollon,Australia,-28.033333,147.366667
BLT,Blackwater,Australia,-23.583333,148.883333
BME,Broome,Australia,-17.96177069,122.2307681
BMP,Brampton Island,Australia,-20.783333,149.233333
BNE,Brisbane,Australia,-27.45503091,153.0350927
BNK,Ballina,Australia,-28.86135333,153.5679801
BOX,Borroloola,Australia,-16.083333,136.3
BQB,Busselton,Australia,-33.65640949,115.3486592
BQL,Boulia,Australia,-22.89959837,139.9000288
BQW,Balgo Hills,Australia,-20.133333,127.8
BRJ,Bright,Australia,-36.733333,146.966667
BRK,Bourke,Australia,-30.1,145.9333333
BRT,Bathurst Island,Australia,-11.766667,130.633333
BSJ,Bairnsdale,Australia,-37.82959145,147.6099975
BTD,Brunette Downs,Australia,-18.633333,135.933333
BTX,Betoota,Australia,-25.633333,140.8
BUC,Burketown,Australia,-17.71609048,139.5666125
BUY,Bunbury,Australia,-33.34428384,115.6502429
BVI,Birdsville,Australia,-25.89962197,139.3666247
BVW,Batavia Downs,Australia,-12.45,143.25
BVZ,Beverley Springs,Australia,-17.983333,125.45
BWB,Barrow Island,Australia,-20.8,115.383333
BWQ,Brewarrina,Australia,-29.966667,146.816667
BWT,Burnie,Australia,-41.06660317,145.9166642
BWU,Sydney Bankstown,Australia,-33.916667,150.983333
BXF,Belburn,Australia,-33.1,145.0
BXG,Bendigo,Australia,-36.75999266,144.2800199
BYP,Barimunya,Australia,-22.67,119.17
BYX,Baniyala,Australia,-13.2,136.233333
BZD,Balranald,Australia,-34.633333,143.55
BZP,Bizant,Australia,-15.216667,144.633333
CAZ,Cobar,Australia,-31.533333,145.8
CBC,Cherrabun,Australia,-18.666667,125.366667
CBI,Cape Barren Island,Australia,-31.983333,132.15
CBR,Canberra,Australia,-35.28302855,149.1290262
CBX,Condobolin,Australia,-33.066667,147.2
CBY,Canobie,Australia,-19.633333,140.916667
CCL,Chinchilla,Australia,-26.783333,150.616667
CCW,Cowell,Australia,-33.68286782,136.9166451
CDA,Cooinda,Australia,-12.9,132.516667
CDQ,Croydon,Australia,-18.3,142.25
CDU,Camden,Australia,-34.040278,150.687222
CED,Ceduna,Australia,-32.09913464,133.6622674
CES,Cessnock,Australia,-32.083333,151.083333
CFH,Clifton Hills,Australia,-26.516667,139.45
CFI,Camfield,Australia,-17.15,131.35
CFP,Carpentaria Downs,Australia,-18.783333,144.35
CFS,Coffs Harbour,Australia,-30.3070532,153.1122973
CGV,Caiguna,Australia,-32.266667,125.466667
CIE,Collie,Australia,-33.35,116.15
CJF,Coondewanna,Australia,-22.97,118.8
CKI,Croker Island,Australia,-11.083333,132.5
CLH,Coolah,Australia,-31.833333,149.7
CMA,Cunnamulla,Australia,-28.033333,145.616667
CMD,Cootamundra,Australia,-34.633333,148.05
CML,Camooweal,Australia,-19.91673134,138.1166752
CMQ,Clermont,Australia,-22.866667,147.5
CNB,Coonamble,Australia,-30.983333,148.383333
CNC,Coconut Island,Australia,-10.05,143.066667
CNJ,Cloncurry,Australia,-20.69999103,140.4999922
CNS,Cairns,Australia,-16.88783986,145.7633309
COB,Coolibah,Australia,-15.666667,130.966667
COJ,Coonabarabran,Australia,-31.333333,149.266667
COY,Coolawanyah,Australia,-21.8,117.766667
CPD,Coober Pedy,Australia,-29.05,134.75
CQP,Cape Flattery,Australia,-18.2,147.5
CRB,Collarenebri,Australia,-29.525833,148.575833
CRH,Cherribah,Australia,-27.65,151.95
CRJ,Coorabie,Australia,-31.9,132.3
CRY,Carlton Hill,Australia,-15.7,128.5
CSD,Cresswell Downs,Australia,-17.966667,135.916667
CTL,Charleville,Australia,-26.40000486,146.2500288
CTN,Cooktown,Australia,-15.45,145.183333
CTR,Cattle Creek,Australia,-17.583333,131.0
CUD,Caloundra,Australia,-26.80003213,153.1333296
CUG,Cudal,Australia,-33.3,148.702778
CUQ,Coen,Australia,-13.783333,143.116667
CUY,Cue,Australia,-27.45,117.916667
CVC,Cleve,Australia,-33.7,136.5
CVQ,Carnarvon,Australia,-24.89983803,113.6501066
CWR,Cowarie,Australia,-27.716667,138.333333
CWT,Cowra,Australia,-33.82962889,148.6800097
CWW,Corowa,Australia,-35.983333,146.35
CXQ,Christmas Creek,Australia,-18.916667,125.916667
CXT,Charters Towers,Australia,-20.08090737,146.2587105
CYG,Corryong,Australia,-36.25,147.9
CZY,Cluny,Australia,-24.5,139.5
DAJ,Dauan Island,Australia,-9.433333,142.516667
DBO,Dubbo,Australia,-32.25995726,148.5973274
DBY,Dalby,Australia,-27.19385822,151.2657434
DCN,Derby,Australia,-17.29999184,123.9666345
DDI,Daydream Is,Australia,-20.166667,148.183333
DDN,Delta Downs,Australia,-16.916667,141.3
DFP,Drumduff,Australia,-16.0,143.033333
DGD,Dalgaranga,Australia,-27.766667,117.033333
DGE,Mudgee,Australia,-32.58960122,149.5801098
DHD,Durham Downs,Australia,-27.066667,141.916667
DKI,Dunk Island,Australia,-17.933333,146.166667
DKV,Docker River,Australia,-24.866667,129.116667
DLK,Dulkaninna,Australia,-29.016667,139.466667
DLV,Delissaville,Australia,-12.416667,130.341667
DMD,Doomadgee Mission,Australia,-18.0,138.833333
DNB,Dunbar,Australia,-16.083333,142.416667
DNG,Doongan,Australia,13.662778,122.3275
DNM,Denham,Australia,-25.916667,113.533333
DNQ,Deniliquin,Australia,-35.5295768,144.9500048
DOX,Dongara,Australia,-29.25,114.933333
DPO,Devonport,Australia,-41.19266757,146.3311017
DRD,Dorunda Station,Australia,-16.516667,142.366667
DRN,Dirranbandi,Australia,-28.5,148.258333
DRR,Durrie,Australia,-25.6,140.25
DRW,Darwin,Australia,-12.416667,130.866667
DVP,Davenport Downs,Australia,-24.166667,141.083333
DVR,Daly River,Australia,-13.75,130.683333
DXD,Dixie,Australia,-15.166667,143.666667
DYA,Dysart,Australia,-22.533333,149.383333
DYM,Diamantina Lakes,Australia,-23.866667,141.25
DYW,Daly Waters,Australia,-16.266667,133.366667
ECH,Echuca,Australia,-36.12959186,144.750017
EDD,Erldunda,Australia,-25.23330605,133.1999727
EDR,Pormpuraaw,Australia,-14.9,141.616667
EIH,Einasleigh,Australia,-18.5,144.1
EKD,Elkedra,Australia,-21.033333,135.25
ELC,Elcho Island,Australia,-12.016667,135.566667
EMD,Emerald,Australia,-23.51222247,148.1673278
ENB,Eneabba West,Australia,-30.083333,114.983333
EPR,Esperance,Australia,-33.857307,121.8888973
ERB,Ernabella,Australia,-26.266667,132.166667
ETD,Etadunna,Australia,-28.716667,138.633333
EUC,Eucla,Australia,-31.716667,128.866667
EVD,Eva Downs,Australia,-18.083333,134.866667
EVH,Evans Head,Australia,-29.1,153.416667
EXM,Exmouth Gulf,Australia,-22.383333,114.116667
FIK,Finke,Australia,-25.583333,134.6
FIZ,Fitzroy Crossing,Australia,-18.166667,125.55
FLC,Falls Creek,Australia,-34.983333,150.6
FLS,Flinders Island,Australia,-40.083333,148.0
FLY,Finley,Australia,-35.65,145.583333
FOS,Forrest,Australia,-30.838056,128.115
FOT,Forster,Australia,32.183333,152.516667
FRB,Forbes,Australia,-33.38960407,148.0199983
FSL,Fossil Downs,Australia,-18.2,125.75
FVL,Flora Valey,Australia,-18.333333,128.0
FVR,Forrest River Airport,Australia,-15.3,128.066667
GAH,Gayndah,Australia,-25.616667,151.616667
GBL,Goulburn Island,Australia,-11.666667,133.416667
GBP,Gamboola,Australia,-16.55,143.666667
GBV,Gibb River,Australia,-16.333333,126.366667
GDD,Gordon Downs,Australia,-18.833333,128.533333
GET,Geraldton,Australia,-28.77,114.61
GEX,Geelong,Australia,-38.16749505,144.3956335
GFE,Grenfell,Australia,-33.9,148.166667
GFF,Griffith,Australia,-34.29001422,146.0400158
GFN,Grafton,Australia,-29.71199909,152.9376827
GGD,Gregory Downs,Australia,-18.7,139.25
GIC,Boigu Island,Australia,-9.266667,142.2
GKL,Great Keppel Island,Australia,-23.183333,150.95
GLG,Glengyle,Australia,-24.766667,139.583333
GLI,Glen Innes,Australia,-29.683333,151.7
GLM,Glenormiston,Australia,-22.283333,138.316667
GLT,Gladstone,Australia,-23.8533386,151.2467264
GLY,Goldsworthy,Australia,-20.083333,119.666667
GOO,Goondiwindi,Australia,-28.55480874,150.325284
GOS,Gosford,Australia,-33.433333,151.35
GOV,Nhulunbuy,Australia,-12.166667,136.675
GPN,Garden Point,Australia,-11.4,130.433333
GSC,Gascoyne Junction,Australia,-25.05,115.2
GSN,Mount Gunson,Australia,-31.866667,138.2
GTE,Groote Eylandt,Australia,-14.0,136.5
GTS,The Granites,Australia,-26.966667,133.616667
GUH,Gunnedah,Australia,-30.9870117,150.2622904
GUL,Goulburn,Australia,-34.74957273,149.7101794
GVP,Greenvale,Australia,-15.783333,144.616667
GYL,Argyle,Australia,-16.640833,128.45
GYP,Gympie,Australia,-26.18859658,152.6709289
HAT,Heathlands,Australia,-19.720833,140.583333
HBA,Hobart,Australia,-42.9,147.3
HCQ,Halls Creek,Australia,-18.26670286,127.7667126
HGD,Hughenden,Australia,-20.85000771,144.2000248
HID,Horn Island,Australia,-10.536667,142.29
HIG,Highbury,Australia,-16.433333,143.15
HIH,Hook Island,Australia,-20.166667,148.95
HIP,Headingly,Australia,-21.316667,138.3
HIS,Hayman Island,Australia,-20.066667,148.866667
HLL,Hillside,Australia,-17.0,128.008333
HLS,St Helens,Australia,-41.0,148.175
HLV,Helenvale,Australia,-15.683333,145.2
HMG,Hermannsburg,Australia,-23.966667,132.666667
HNK,Hinchinbrook Island,Australia,-18.383333,146.283333
HOK,Hooker Creek,Australia,-18.366667,130.666667
HPE,Hope Vale,Australia,-14.666667,144.916667
HRY,Henbury,Australia,-24.666667,133.083333
HSM,Horsham,Australia,-36.70960814,142.1900183
HTI,Hamilton Island,Australia,-20.358056,148.951667
HTU,Hopetoun,Australia,-35.716667,142.35
HUB,Humbert River,Australia,-16.483333,130.633333
HVB,Hervey Bay,Australia,-25.28870319,152.8409444
HWK,Wilpena Pound,Australia,-31.883333,138.4
HXX,Hay,Australia,-34.516667,144.833333
IDK,Indulkana,Australia,-26.966667,133.325
IFF,Iffley,Australia,-18.916667,141.25
IFL,Innisfail,Australia,-17.53134723,146.0386722
IGH,Ingham,Australia,-18.64957355,146.1666231
IKP,Inkerman,Australia,-16.25,141.5
INJ,Injune,Australia,-25.85,148.55
INM,Innamincka,Australia,-27.833333,140.833333
IRG,Lockhart River,Australia,-12.783333,143.3
ISA,Mount Isa,Australia,-20.72386554,139.490028
ISI,Isisford,Australia,-24.2,144.416667
IVR,Inverell,Australia,-29.7667761,151.1125744
IVW,Inverway,Australia,-17.766667,129.233333
JAB,Jabiru,Australia,-10.216667,132.566667
JAD,Jandakot,Australia,-32.0975,115.881111
JCK,Julia Creek,Australia,-20.583333,141.7
JHQ,Shute Harbour H/P,Australia,-20.283333,148.75
JUN,Jundah,Australia,-24.8,143.033333
JUR,Jurien Bay,Australia,-30.269722,115.05
KAH,City Heliport,Australia,-37.716667,145.0
KAX,Kalbarri,Australia,-27.66618081,114.1666642
KBB,Kirkimbie,Australia,-17.766667,129.216667
KBD,Kimberley Downs,Australia,-17.4,124.366667
KBJ,Kings Canyon,Australia,-24.261389,131.490833
KBY,Streaky Bay,Australia,-32.81187176,134.2149296
KCE,Collinsville,Australia,-20.55,147.866667
KCS,Kings Creek Station,Australia,24.383333,131.683333
KDB,Kambalda,Australia,-31.2,121.666667
KDS,Kamaran Downs,Australia,-24.333333,139.166667
KFG,Kalkurung,Australia,-17.433333,130.816667
KGC,Kingscote,Australia,-35.713889,137.521389
KGI,Kalgoorlie-Boulder,Australia,-30.789444,121.461667
KGR,Kulgera,Australia,-25.833333,133.5
KGY,Kingaroy,Australia,-26.53896279,151.840592
KKP,Koolburra,Australia,-15.583333,143.95
KML,Kamileroi,Australia,-19.5,140.083333
KNI,Katanning,Australia,-33.69955931,117.5500752
KNS,King Island,Australia,-39.883056,143.883056
KNX,Kununurra,Australia,-15.76659707,128.7333203
KOH,Koolatah,Australia,-15.966667,142.416667
KPP,Kalpowar,Australia,-14.883333,144.216667
KPS,Kempsey,Australia,-31.08736733,152.8220308
KQB,Koonibba,Australia,-31.966667,133.45
KRA,Kerang,Australia,-35.75,143.933333
KRB,Karumba,Australia,-17.48333982,140.8334086
KRD,Kurundi,Australia,-20.5,134.633333
KTA,Karratha,Australia,-20.73037677,116.8700134
KTR,Tindal,Australia,-14.516667,132.366667
KUG,Kubin Island,Australia,-10.25,142.216667
KWM,Kowanyama,Australia,-15.487778,141.76
KYB,Yangoonabie,Australia,-31.466667,130.066667
KYF,Yeelirrie,Australia,-27.277778,120.075
KYI,Yalata Mission,Australia,-31.483333,131.866667
LBH,Palm Beach SPB,Australia,33.966667,151.25
LCN,Balcanoona,Australia,-30.533333,139.316667
LDC,Lindeman Island,Australia,-20.45,149.05
LDH,Lord Howe Island,Australia,-31.516667,159.05
LDW,Lansdowne,Australia,-17.583333,126.833333
LEA,Learmonth,Australia,-22.233333,114.1
LEL,Lake Evella,Australia,-12.216667,136.25
LER,Leinster,Australia,-27.833333,120.616667
LFP,Lakefield,Australia,-14.916667,144.333333
LGE,Lake Gregory,Australia,-28.916667,139.0
LGH,Leigh Creek,Australia,-30.466667,138.416667
LHG,Lightning Ridge,Australia,-29.4,147.966667
LIB,Limbunya,Australia,-17.333333,129.833333
LKD,Lakeland Downs,Australia,-16.166667,145.5
LLG,Chillagoe,Australia,-17.133333,144.533333
LLL,Lissadell,Australia,-16.5,128.666667
LLP,Linda Downs,Australia,-23.016667,138.7
LLT,Lilydale Airport,Australia,-37.691667,145.366667
LNH,Lake Nash,Australia,-21.0,137.916667
LNO,Leonora,Australia,-28.883333,121.3
LOA,Lorraine,Australia,-19.083333,139.966667
LOC,Lock,Australia,-33.566667,135.766667
LRE,Longreach,Australia,-23.44959064,144.2500476
LST,Launceston,Australia,-41.44983559,147.1301818
LSY,Lismore,Australia,-28.81665322,153.2931132
LTP,Lyndhurst,Australia,-19.2,144.383333
LTV,Lotusvale,Australia,-17.083333,141.366667
LUT,Laura Station,Australia,-15.433333,144.816667
LUU,Laura,Australia,-15.666667,144.166667
LVO,Laverton,Australia,-28.62700071,122.4040425
LWH,Lawn Hill,Australia,-18.633333,138.633333
LYT,Lady Elliot Island,Australia,-24.116667,152.7
LZR,Lizard Island,Australia,-14.666667,145.466667
MBB,Marble Bar,Australia,-21.25,119.583333
MBF,Mount Buffalo,Australia,-22.583333,149.466667
MBH,Maryborough,Australia,-25.54910073,152.7209
MBN,Mt Barnett,Australia,-16.666667,125.95
MBW,Moorabbin,Australia,-37.975833,145.102222
MCV,Mcarthur River Mine,Australia,-16.466667,136.083333
MCY,Sunshine Coast,Australia,-26.67998777,153.0500272
MEB,Melbourne (AU),Australia,-37.7,144.866667
MEL,Melbourne (AU),Australia,-37.673333,144.843333
MET,Moreton,Australia,-12.75,142.766667
MFL,Mount Full Stop,Australia,-19.666667,144.9
MFP,Manners Creek,Australia,-22.1,137.983333
MGB,Mount Gambier,Australia,-37.83134845,140.7650406
MGT,Milingimbi Island,Australia,-12.1,134.9
MGV,Margaret River,Australia,-18.616667,126.883333
MHO,Mount House,Australia,-17.166667,125.666667
MHU,Mount Hotham,Australia,-37.166667,146.166667
MIH,Mitchell Plateau,Australia,-14.783333,125.816667
MIM,Merimbula,Australia,-36.89962238,149.9000386
MIN,Minnipa,Australia,-32.833333,135.133333
MIY,Mittiebah,Australia,-18.5,136.266667
MIZ,Mainoru,Australia,-14.3,134.083333
MJK,Shark Bay,Australia,-25.8,113.716667
MJP,Manjimup,Australia,-34.23332518,116.1500057
MKR,Meekatharra,Australia,-26.59999266,118.4832999
MKV,Mt Cavenagh,Australia,-25.966667,133.2
MKY,Mackay,Australia,-21.14389158,149.1500069
MLR,Millicent,Australia,-37.633333,140.583333
MLV,Merluna,Australia,-13.066667,142.45
MMG,Mount Magnet,Australia,-28.06620807,117.8166739
MMM,Middlemount,Australia,-22.8025,148.704722
MNE,Mungeranie,Australia,-28.016667,138.666667
MNG,Maningrida,Australia,-12.05,134.216667
MNQ,Monto,Australia,-24.883333,151.1
MNV,Mountain Valley,Australia,-14.116667,133.833333
MNW,Macdonald Downs,Australia,-22.5,135.166667
MOO,Moomba,Australia,-28.133333,140.233333
MOV,Moranbah,Australia,-22.00156533,148.0380334
MQA,Mandora,Australia,-19.833333,120.833333
MQE,Marqua,Australia,-22.816667,137.35
MQL,Mildura,Australia,-34.18500771,142.1513643
MRG,Mareeba,Australia,-17.0,145.433333
MRL,Miners Lake,Australia,-20.066667,145.583333
MRP,Marla,Australia,-27.033333,133.116667
MRT,Moroak,Australia,-14.816667,133.7
MRZ,Moree,Australia,-29.469895,149.8300687
MSF,Mount Swan,Australia,-22.666667,134.916667
MTD,Mt Sandford,Australia,-16.983333,130.55
MTL,Maitland,Australia,-32.72096271,151.555028
MTQ,Mitchell,Australia,-26.4,147.9
MUP,Mulga Park,Australia,-25.85,131.6
MUQ,Muccan,Australia,-20.633333,120.033333
MVH,Macksville,Australia,-30.716667,152.916667
MVK,Mulka,Australia,-28.35,138.65
MVU,Musgrave,Australia,-14.166667,143.683333
MWB,Morawa,Australia,-29.21626707,116.0000406
MWT,Moolawatana,Australia,-29.916667,139.716667
MWY,Miranda Downs,Australia,-17.366667,141.866667
MXD,Marion Downs,Australia,-23.5,139.666667
MXQ,Mitchell River,Australia,-15.666667,141.8
MXU,Mullewa,Australia,-28.55,115.516667
MYA,Moruya,Australia,-35.9,150.133333
MYI,Murray Island,Australia,-9.933333,144.016667
MYO,Myroodah,Australia,-18.2,124.2
NAA,Narrabri,Australia,-30.33190957,149.7874357
NAC,Naracoorte,Australia,-36.966667,140.583333
NBH,Nambucca Heads,Australia,-30.65,153.0
NBR,Nambour,Australia,-26.633333,152.95
NDS,Sandstone,Australia,-28.0,119.25
NGA,Young,Australia,-34.30959959,148.2900077
NIF,Nifty,Australia,-21.67,121.59
NKB,Noonkanbah,Australia,-18.5,124.833333
NLF,Darnley Island,Australia,-9.566667,143.75
NLL,Nullagine,Australia,-21.75,120.2
NLS,Nicholson,Australia,-18.041667,128.9
NMP,New Moon,Australia,-20.166667,143.966667
NMR,Nappa Merry,Australia,-27.633333,141.083333
NOA,Nowra,Australia,-34.88284625,150.6000476
NPP,Napperby,Australia,-22.633333,132.833333
NRA,Narrandera,Australia,-34.7,146.516667
NRG,Narrogin,Australia,-32.93288776,117.1666361
NRY,Newry,Australia,-16.083333,129.341667
NSA,Noosa,Australia,26.25,153.166667
NSM,Norseman,Australia,-32.20001259,121.7666137
NSO,Scone,Australia,-32.07960651,150.8501098
NSV,Noosaville,Australia,-26.4,153.066667
NTL,Newcastle (AU),Australia,-32.795,151.834444
NTN,Normanton,Australia,-17.7,141.066667
NUB,Numbulwar,Australia,-14.266667,135.716667
NUR,Nullarbor,Australia,-31.433333,130.916667
NYN,Nyngan,Australia,-31.55,147.183333
OAG,Orange,Australia,-33.27999835,149.0999841
OCM,Boolgeeda,Australia,-22.54,117.3
ODD,Oodnadatta,Australia,-27.55,135.433333
ODL,Cordillo Downs,Australia,-26.833333,140.75
ODR,Ord River,Australia,-17.35,128.9
OKB,Fraser Island,Australia,-25.0,153.283333
OKR,Yorke Island,Australia,-9.733333,143.416667
OKY,Oakey,Australia,-27.402778,151.733333
OLP,Olympic Dam,Australia,-30.485,136.876667
ONG,Mornington Island,Australia,-16.583333,139.3
ONR,Monkira,Australia,-24.816667,140.533333
ONS,Onslow,Australia,-21.65759354,115.0962959
OOL,Gold Coast,Australia,-28.08150429,153.4482458
OOM,Cooma,Australia,-36.23955931,149.1200345
OOR,Mooraberree,Australia,-25.245,140.980833
OPI,Oenpelli,Australia,-12.333333,133.083333
ORR,Yorketown,Australia,-35.033333,137.6
ORS,Waterport,Australia,-18.633333,146.483333
OXO,Orientos,Australia,-28.133333,141.533333
OXY,Morney,Australia,-25.366667,141.466667
OYN,Ouyen,Australia,-35.06619424,142.3166772
PBO,Paraburdoo,Australia,-23.233333,117.516667
PBY,Hamilton/Proserpine,Australia,-35.5,148.733333
PDE,Pandie Pandie,Australia,-26.133333,139.383333
PDN,Parndana,Australia,-35.8,137.216667
PEA,Penneshaw,Australia,-35.733333,137.933333
PEP,Peppimenarti,Australia,-14.15,130.1
PER,Perth,Australia,-32.0,115.9
PEY,Penong,Australia,-31.916667,133.016667
PHE,Port Hedland,Australia,-20.31040241,118.6060315
PHJ,Port Hunter,Australia,-32.916667,151.766667
PKE,Parkes,Australia,-33.12956826,148.170015
PKT,Port Keats,Australia,-14.25,129.533333
PLO,Port Lincoln,Australia,-34.73324298,135.86658
PPI,Port Pirie,Australia,-33.19106321,137.9900162
PPP,Proserpine,Australia,-20.41623574,148.5834781
PQQ,Port Macquarie,Australia,-31.44501992,152.9186657
PRD,Pardoo,Australia,-20.133333,119.583333
PTE,Port Stephens,Australia,-32.75,153.8
PTI,Port Douglas,Australia,-16.48458812,145.4587219
PTJ,Portland (AU),Australia,-38.383333,141.633333
PUG,Port Augusta,Australia,-32.49002073,137.7700297
RAM,Ramingining,Australia,-12.0,134.816667
RBC,Robinvale,Australia,-34.65,142.783333
RBS,Orbost,Australia,-37.7,148.5
RBU,Roebourne,Australia,-20.7829317,117.1333048
RCM,Richmond (AU),Australia,-20.716944,143.116667
RCN,American River,Australia,-35.783333,137.783333
RDA,Rockhampton Downs,Australia,-18.95,135.2
RHL,Roy Hill,Australia,-22.633333,119.966667
RKY,Rokeby,Australia,-13.65,142.616667
RLP,Rosella Plains,Australia,-18.433333,144.466667
RMA,Roma,Australia,-26.55937498,148.7907006
RMK,Renmark,Australia,-34.2,140.683333
ROH,Robinhood,Australia,-18.85,143.7
ROK,Rockhampton,Australia,-23.36391111,150.5200008
RPB,Roper Bar,Australia,-14.75,134.55
RPM,Ngukurr,Australia,-14.833333,134.916667
RPV,Roper Valley,Australia,-15.033333,134.033333
RRE,Marree,Australia,-29.65,138.066667
RSB,Roseberth,Australia,-25.783333,139.616667
RSE,Rose Bay,Australia,-33.866667,151.266667
RTP,Rutland Plains,Australia,-15.6,141.833333
RTS,Rottnest Island,Australia,-32.0,115.533333
RTY,Merty,Australia,-29.0,138.733333
RVT,Ravensthorpe,Australia,-33.58287392,120.0333345
SBR,Saibai Island,Australia,-9.4,142.666667
SCG,Spring Creek,Australia,-18.633333,144.55
SFP,Surfers Paradise,Australia,-28.0,153.433333
SGO,St George (AU),Australia,-28.083333,148.75
SGP,Shay Gap,Australia,-20.483333,120.1
SHQ,Southport,Australia,-27.951944,153.417778
SHT,Shepparton,Australia,-36.37458982,145.3913732
SHU,Smith Point,Australia,-11.166667,133.833333
SIO,Smithton,Australia,-40.83292234,145.1166613
SIX,Singleton,Australia,-32.56949909,151.1600134
SNB,Snake Bay,Australia,-11.333333,130.75
SNH,Stanthorpe,Australia,-28.633333,151.966667
SOI,South Molle Island,Australia,-20.0,149.0
SQC,Southern Cross,Australia,-31.216145,119.3166857
SQP,Starcke,Australia,-14.2,147.166667
SRM,Sandringham,Australia,-24.05,139.066667
SRN,Strahan,Australia,-42.15,145.3
SRR,Dunwich,Australia,-27.0,153.0
SSK,Sturt Creek,Australia,-19.333333,128.133333
SSP,Silver Plains,Australia,-13.983333,143.55
STF,Stephen Island,Australia,-9.5,143.566667
STH,Strathmore,Australia,-17.833333,142.533333
SWB,Shaw River,Australia,-21.516667,119.366667
SWC,Stawell,Australia,-37.05961261,142.7600093
SWH,Swan Hill,Australia,-35.33961424,143.5400134
SWZ,Sydney West,Australia,-33.883333,150.716667
SXE,Sale,Australia,-38.10957436,147.0600052
SYD,Sydney (AU),Australia,-33.946111,151.177222
SYU,Warraber Island,Australia,-10.516667,142.366667
TAN,Tangalooma,Australia,-27.178056,153.373611
TAQ,Tarcoola,Australia,-33.433333,142.583333
TBK,Timber Creek,Australia,-44.766667,169.1
TBL,Tableland,Australia,-17.0,145.0
TCA,Tennant Creek,Australia,-19.65002928,134.200015
TCW,Tocumwal,Australia,-35.816667,145.566667
TDN,Theda Station,Australia,-33.1,145.0
TDR,Theodore,Australia,-24.94949909,150.0833349
TEF,Telfer,Australia,-23.083333,115.683333
TEM,Temora,Australia,-34.433333,147.533333
TGN,La Trobe Regional,Australia,-38.183333,146.533333
THG,Thangool,Australia,-24.493889,150.576111
TKY,Turkey Creek,Australia,-30.333333,142.75
TMW,Tamworth,Australia,-31.10261188,150.9171342
TPR,Tom Price,Australia,-22.69346108,117.7930578
TRO,Taree,Australia,-31.89760211,152.4618461
TSV,Townsville,Australia,-19.24995034,146.7699971
TUM,Tumut,Australia,-35.30959023,148.2200378
TWB,Toowoomba,Australia,-27.542778,151.916389
TWN,Tewantin,Australia,-26.383333,153.033333
TWP,Torwood,Australia,-26.583333,147.55
TXR,Tanbar,Australia,-25.833333,141.916667
TYB,Tibooburra,Australia,-29.433333,142.016667
TYG,Thylungra,Australia,-26.066667,143.466667
TYP,Tobermorey,Australia,-22.283333,137.916667
UBB,Mabuiag Island,Australia,-9.95,142.183333
UBU,Kalumburu,Australia,-14.416667,126.666667
UIR,Quirindi,Australia,-31.490556,150.513889
ULP,Quilpie,Australia,-26.61663247,144.2500476
UMR,Woomera,Australia,-31.14958576,136.8000114
USL,Useless Loop,Australia,-25.966667,113.116667
UTB,Muttaburra,Australia,-22.588056,144.526667
UTD,Nutwood Downs,Australia,-15.833333,134.166667
VCD,Victoria River Downs,Australia,-16.405,131.003333
VNR,Vanrook,Australia,-16.866667,141.916667
WAN,Waverney,Australia,-25.366667,141.933333
WAU,Wauchope,Australia,-31.45,152.733333
WAV,Kalkgurung,Australia,-17.65,130.883333
WAZ,Warwick,Australia,-28.22924721,152.0203226
WBA,Wahai,Australia,-10.3,142.683333
WDI,Wondai,Australia,-26.316667,151.866667
WEI,Weipa,Australia,-12.66663125,141.8666272
WEW,Wee Waa,Australia,-30.233333,149.433333
WGA,Wagga Wagga,Australia,-35.12215981,147.3399882
WGE,Walgett,Australia,-30.033333,148.133333
WGT,Wangaratta,Australia,-36.36001707,146.3
WHL,Welshpool,Australia,-38.688889,146.45
WIN,Winton,Australia,-22.39962889,143.0332743
WIO,Wilcannia,Australia,-31.56620115,143.3833304
WIT,Wittenoom,Australia,-22.266667,118.333333
WKB,Warracknabeal,Australia,-36.333333,142.25
WLA,Wallal,Australia,-19.766667,120.65
WLC,Walcha,Australia,-30.983333,151.6
WLE,Miles,Australia,-26.66,150.18
WLL,Wollogorang,Australia,-17.216667,137.916667
WLP,West Angelas,Australia,-23.18,118.76
WMB,Warrnambool,Australia,-38.37999713,142.4700012
WME,Mount Keith,Australia,-27.286389,120.554722
WND,Windarra,Australia,-28.266667,121.833333
WNR,Windorah,Australia,-25.43324217,142.6501969
WOG,Woodgreen,Australia,-22.5,134.25
WOL,Wollongong,Australia,-34.41538125,150.890004
WON,Wondoola,Australia,-18.666667,140.916667
WPK,Wrotham Park,Australia,-16.633333,144.0
WRN,Windarling,Australia,-30.56,119.3
WRW,Warrawagine,Australia,-20.966667,120.7
WSY,Whitsunday Airstrip,Australia,-20.283333,148.783333
WTB,Toowoomba,Australia,-27.56,141.796
WUD,Wudinna,Australia,-33.016667,135.619444
WUN,Wiluna,Australia,-26.633333,120.216667
WWI,Woodie Woodie,Australia,-21.6,121.2
WWY,West Wyalong,Australia,-33.933333,147.25
WYA,Whyalla,Australia,-33.02502684,137.5614119
WYN,Wyndham,Australia,-15.37395953,128.3600614
XCO,Colac,Australia,-38.33953449,143.5800109
XHW,Alice Springs Railway,Australia,-23.566667,145.8
XHX,Adelaide Keswick Rail,Australia,-33.1375,136.303056
XJG,Darwin Railway,Australia,-33.1,145.0
XMC,Mallacoota,Australia,-37.6,149.716667
XML,Minlaton,Australia,-34.766667,137.6
XMY,Yam Island,Australia,-10.483333,142.45
XRH,Richmond AFB,Australia,-33.6,150.1
XTG,Thargomindah,Australia,-27.99995888,143.816689
XTO,Taroom,Australia,-25.65,149.8
XTR,Tara,Australia,-27.0,150.0
YLG,Yalgoo,Australia,-28.35,116.666667
YNN,Yandi,Australia,-21.416667,120.166667
YUE,Yuendumu,Australia,-22.266667,131.783333
ZBL,Biloela,Australia,-24.39356403,150.4960746
ZBO,Bowen,Australia,-20.00132566,148.208669
ZGL,South Galway,Australia,-25.683333,142.116667
ZNE,Newman,Australia,-23.36659829,119.7333011
ZVG,Springvale,Australia,-17.8,127.633333
GRZ,Graz,Austria,47.0777582,15.41000484
HOH,Hohenems,Austria,47.383333,9.7
INN,Innsbruck,Austria,47.28040733,11.4099906
KLU,Klagenfurt,Austria,46.62034426,14.3100203
LNZ,Linz,Austria,48.3,14.3
QLX,Lauterach,Austria,47.483056,9.733056
SZG,Salzburg,Austria,47.793333,13.004444
VDD,Vienna Danubepier Hov,Austria,48.25,16.416667
VIE,Vienna,Austria,48.110278,16.569722
XJS,Kitzbuehl Railway,Austria,47.543333,10.708889
XWC,Suedbahnhof Rail,Austria,48.25,16.416667
XWW,Westbahnhof Rail,Austria,48.25,16.416667
GBB,Gabala,Azerbaijan,40.0,50.0
GYD,Baku,Azerbaijan,40.4675,50.046667
KVD,Ganja,Azerbaijan,40.733333,46.316667
LLK,Lankaran,Azerbaijan,38.7540027,48.85106441
NAJ,Nakchivan,Azerbaijan,39.333333,45.5
ZXT,Heydar Aliyev,Azerbaijan,40.45,50.066667
ASD,Andros Town,Bahamas,24.6975,-77.793889
ATC,Arthur's Town,Bahamas,24.62,-75.67
AXP,Spring Point,Bahamas,22.45,-73.966667
BIM,Bimini,Bahamas,25.7,-79.283333
CAT,New Bight,Bahamas,24.3,-75.452222
CCZ,Chub Cay,Bahamas,25.416667,-77.883333
CEL,Cape Eleuthera,Bahamas,24.958333,-76.45
COX,Congo Town,Bahamas,24.15,-77.586111
CRI,Crooked Island,Bahamas,22.75,-74.15
CXY,Cat Cays,Bahamas,24.315,-75.453611
DCT,Duncan Town,Bahamas,22.183333,-75.733333
ELH,North Eleuthera,Bahamas,25.483333,-76.683333
FPO,Freeport,Bahamas,26.53327578,-78.70001306
GBI,Auxiliary Airfield,Bahamas,26.631944,-78.359167
GGT,George Town,Bahamas,25.0,-77.0
GHB,Governors Harbour,Bahamas,25.283333,-76.333333
GHC,Great Harbour,Bahamas,25.750278,-77.85
GTC,Green Turtle,Bahamas,26.783333,-77.333333
HBI,Harbour Island,Bahamas,25.5,-76.75
IGA,Inagua,Bahamas,20.983333,-73.666667
LGI,Deadmans Cay,Bahamas,23.25,-75.133333
MAY,Mangrove Cay,Bahamas,24.216667,-77.666667
MHH,Marsh Harbour,Bahamas,26.5,-77.1
MSK,Mastic Point,Bahamas,36.850833,27.076111
MYG,Mayaguana,Bahamas,22.366667,-73.016667
NAS,Nassau,Bahamas,25.08339012,-77.35004378
NSB,North SPB,Bahamas,25.775,-79.25
PID,Paradise Island,Bahamas,25.083333,-77.3
PPO,Powell Point,Bahamas,24.899722,-76.360833
PWN,Pitts Town,Bahamas,22.833333,-74.35
RCY,Rum Cay,Bahamas,23.65,-74.85
RSD,Rock Sound,Bahamas,24.95,-76.083333
SAQ,San Andros,Bahamas,25.05,-78.033333
SML,Stella Maris,Bahamas,23.6,-75.3
SWL,Spanish Wells,Bahamas,18.433333,-77.183333
TBI,The Bight,Bahamas,17.216667,-78.35
TCB,Treasure Cay,Bahamas,26.745278,-77.391389
TYM,Staniel Cay,Bahamas,24.1525,-76.433889
TZN,South Andros,Bahamas,24.233333,-77.583333
WTD,West End,Bahamas,26.683333,-78.983333
WZY,Paradise Island Seaplane Base,Bahamas,25.087222,-77.323889
ZSA,San Salvador (BS),Bahamas,24.059722,-74.533056
BAH,Bahrain,Bahrain,26.0,50.5
GBQ,Muharraq,Bahrain,26.257222,50.611944
BZL,Barisal,Bangladesh,22.70040895,90.37498979
CGP,Chittagong,Bangladesh,22.32999229,91.79996741
CLA,Comilla,Bangladesh,23.47041363,91.16998002
CXB,Cox's Bazar,Bangladesh,21.44,92.0
DAC,Dhaka,Bangladesh,23.72305971,90.40857947
IRD,Ishurdi,Bangladesh,24.15,89.05
JSR,Jessore,Bangladesh,23.17043194,89.19997107
KHL,Khulna,Bangladesh,22.839987,89.56000077
RAU,Rangpur,Bangladesh,25.75001609,89.28001786
RJH,Rajshahi,Bangladesh,24.37498374,88.6050203
SAJ,Sirajganj,Bangladesh,25.166667,91.425
SDW,Sandwip,Bangladesh,22.666667,91.166667
SPD,Saidpur,Bangladesh,25.80042645,88.99998328
TKR,Thakurgaon,Bangladesh,26.033333,88.466667
ZHM,Shamshernagar,Bangladesh,24.398611,91.921111
ZYL,Sylhet,Bangladesh,24.90355613,91.87360632
BGI,Barbados,Barbados,13.074722,-59.4925
BQT,Brest,Belarus,52.09998395,23.69998979
GME,Gomel,Belarus,52.416667,31.0
GNA,Grodna,Belarus,53.666667,23.8
MHP,Minsk International 1,Belarus,54.0,28.0
MSQ,Minsk,Belarus,53.8825,28.030833
MVQ,Mogilev,Belarus,53.95,30.133333
VTB,Vitebsk,Belarus,55.126389,30.349722
ANR,Antwerp,Belgium,51.189444,4.460278
BRU,Brussels,Belgium,50.902222,4.485833
CRL,Brussels,Belgium,50.46,4.452778
GNE,Ghent,Belgium,51.05,3.716667
KJK,Kortrijk,Belgium,50.833333,3.25
LGG,Liege,Belgium,50.636389,5.442778
OST,Oostende/Brugge,Belgium,51.2,2.866667
XHN,"Guillemins, Raiway Stn",Belgium,50.633333,5.566667
ZAY,De Keyserlei Bus Stn.,Belgium,51.216667,4.416667
ZYZ,Berchem Railway Stn.,Belgium,51.216667,4.416667
BCV,Belmopan,Belize,17.25203351,-88.767073
BZE,Belize City,Belize,17.533333,-88.3
CUK,Caye Caulker,Belize,17.75,-88.05
CYC,Caye Chapel,Belize,17.7,-88.033333
CYD,San Ignacio,Belize,16.36960936,-90.96001062
CZH,Corozal (BZ),Belize,18.333333,-88.5
DGA,Dangriga,Belize,16.97003522,-88.22000045
INB,Independence,Belize,16.5,-88.4
MDB,Melinda,Belize,16.999722,-88.316667
MZE,Manatee,Belize,17.25,-89.6
ORZ,Orange Walk,Belize,18.09043194,-88.5599797
PLJ,Placencia,Belize,16.516667,-88.366667
PND,Punta Gorda (BZ),Belize,16.166667,-88.7
SJX,Sartaneja,Belize,18.3,-88.333333
SPR,San Pedro (BZ),Belize,17.916667,-87.966667
SQS,Matthew Spain,Belize,5.55,-75.366667
STU,Santa Cruz,Belize,-6.219996319,-36.02998194
SVK,Silver Creek,Belize,16.733333,-88.333333
TZA,Belize City,Belize,17.534722,-88.302778
COO,Cotonou,Benin,6.400008564,2.519990599
DJA,Djougou,Benin,9.700427265,1.680041869
KDC,Kandi,Benin,11.13036582,2.940016641
NAE,Natitingou,Benin,10.32041526,1.389982054
PKO,Parakou,Benin,9.340009988,2.620036172
SVF,Save,Benin,8.033333,2.483333
BDA,Bermuda,Bermuda,32.364167,-64.678611
PBH,Paro,Bhutan,27.3833011,89.51670065
APB,Apolo,Bolivia,-14.71958087,-68.41999455
ASC,Ascension,Bolivia,-15.69957273,-63.07998458
BJO,Bermejo,Bolivia,-22.72958291,-64.34998458
BYC,Yacuiba,Bolivia,-22.03003904,-63.69999841
CAM,Camiri,Bolivia,-20.05000486,-63.51998356
CBB,Cochabamba,Bolivia,-17.41001097,-66.16997685
CEP,Concepcion,Bolivia,-23.40638914,-57.43441187
CIJ,Cobija,Bolivia,-11.03334593,-68.73330876
GYA,Guayaramerin,Bolivia,-10.82999917,-65.4099974
LPB,La Paz (BO),Bolivia,-16.513333,-68.192222
MGD,Magdalena,Bolivia,-13.2600834,-64.05276758
MHW,Monteagudo,Bolivia,-19.816667,-63.983333
MQK,San Matias,Bolivia,-16.35999754,-58.42001062
ORU,Oruro,Bolivia,-17.97995034,-67.12999577
POI,Potosi,Bolivia,-19.56956907,-65.75002832
PSZ,Puerto Suarez,Bolivia,-18.94955524,-57.8499679
RBO,Robore,Bolivia,-18.3295414,-59.75998051
RBQ,Rurrenabaque,Bolivia,-14.46001015,-67.55999536
REY,Reyes,Bolivia,-14.30958006,-67.37000696
RIB,Riberalta,Bolivia,-10.98301308,-66.10000696
SBL,Yacuma,Bolivia,-13.766667,-65.583333
SJB,San Joaquin,Bolivia,-13.083333,-64.8
SJV,San Javier,Bolivia,-16.28961424,-62.50001998
SNG,San Ignacio De Velasco,Bolivia,-16.333333,-60.816667
SNM,San Ignacio De M,Bolivia,-14.866667,-65.583333
SRB,Santa Rosa,Bolivia,-27.86952757,-54.4599681
SRD,San Ramon,Bolivia,-13.28959064,-64.70998845
SRE,Sucre,Bolivia,-19.04097085,-65.25951563
SRJ,Capitan G Q Guardia,Bolivia,-14.816667,-66.833333
SRZ,Santa Cruz,Bolivia,-17.8,-63.166667
TDD,Trinidad,Bolivia,-14.8,-64.9
TJA,Tarija,Bolivia,-21.51668537,-64.749986
UYU,Uyuni,Bolivia,-20.46000568,-66.82998824
VAH,Vallegrande,Bolivia,-18.48958331,-64.10999923
VLM,Villamontes,Bolivia,-21.24956989,-63.50001062
VVI,Santa Cruz,Bolivia,-17.644722,-63.135278
BON,Bonaire,"Bonaire, Saint Eustatius and Saba",12.131111,-68.268611
EUX,St Eustatius,"Bonaire, Saint Eustatius and Saba",17.5,-62.966667
SAB,Saba,"Bonaire, Saint Eustatius and Saba",17.583333,-63.333333
BNX,Banja Luka,Bosnia and Herzegovina,44.78040489,17.17997432
OMO,Mostar,Bosnia And Herzegovina,43.35049217,17.82003861
SJJ,Sarajevo,Bosnia and Herzegovina,43.8500224,18.38300167
TZL,Tuzla,Bosnia and Herzegovina,44.5504706,18.6800378
BBK,Kasane,Botswana,-17.80957314,25.15003048
FRW,Francistown,Botswana,-21.17003986,27.50001623
GBE,Gaborone,Botswana,-24.64631346,25.91194779
GNZ,Ghanzi,Botswana,-21.69961994,21.63996049
HUK,Hukuntsi,Botswana,-23.983333,21.75
JWA,Jwaneng,Botswana,-25.05,25.283333
KHW,Khwai River Lodge,Botswana,-19.133333,23.833333
LOQ,Lobatse,Botswana,-25.2196118,25.68002397
MUB,Maun,Botswana,-19.98959511,23.42000688
ORP,Orapa,Botswana,-21.133333,25.65
PKW,Selebi-Phikwe,Botswana,-22.883333,26.916667
SVT,Savuti,Botswana,-18.616667,24.066667
SWX,Shakawe,Botswana,-18.383333,21.833333
SXN,Suapan,Botswana,-20.55,26.116667
TBY,Tsabong,Botswana,-26.05,22.45
TLD,Limpopo Valley,Botswana,-22.833333,28.0
AAG,Arapoti,Brazil,-24.166667,-49.666667
AAI,Arraias,Brazil,-12.916667,-46.933333
AAX,Araxa,Brazil,-19.5795943,-46.95001306
AFL,Alta Floresta,Brazil,-9.900030091,-55.90998295
AIF,Assis,Brazil,-22.65961302,-50.41998214
AJU,Aracaju,Brazil,-10.90002073,-37.11996708
ALQ,Federal,Brazil,-29.8,-55.733333
ALT,Alenquer,Brazil,-1.939585756,-54.78999964
AMJ,Almenara,Brazil,-16.17003497,-40.70000696
APQ,Arapiraca,Brazil,-9.750013409,-36.66999455
APS,Anapolis,Brazil,-16.31958657,-48.9599679
APU,Apucarana,Brazil,-23.54999795,-51.4700214
APX,Arapongas,Brazil,-23.41000649,-51.43004968
APY,Alto Parnaiba,Brazil,-9.1,-45.966667
AQA,Araraquara,Brazil,-21.811944,-48.133056
AQM,Ariquemes,Brazil,-9.939614239,-63.07998458
ARS,Aragarcas,Brazil,-15.896667,-52.095556
ARU,Aracatuba,Brazil,-21.20998574,-50.45000615
ATM,Altamira,Brazil,-3.199612204,-52.21000208
AUB,Itauba,Brazil,-7.1,-41.983333
AUX,Araguaina,Brazil,-7.190014629,-48.21001367
AXE,Xanxere,Brazil,-26.883333,-52.383333
BAT,Airport Chafei Amsei,Brazil,-20.583611,-48.585278
BAZ,Barbelos,Brazil,-0.966944,-62.933611
BCR,Boca Do Acre,Brazil,-8.633333,-67.416667
BDC,Barra Do Corda,Brazil,-5.466667,-45.266667
BEL,Belem,Brazil,-1.450003236,-48.48002303
BFH,Bacacheri,Brazil,-25.405,-49.231944
BGV,Bento Goncalves,Brazil,-29.1694999,-51.51996668
BGX,Airport Cmdt. Gustavo Kraemer,Brazil,-31.390833,-54.109722
BJP,Braganca Paulista,Brazil,-22.95003457,-46.5499858
BMS,Brumado,Brazil,-14.20999957,-41.67002527
BNU,Blumenau,Brazil,-26.9200248,-49.0899858
BPG,Barra Do Garcas,Brazil,-15.85,-52.383333
BPS,Porto Seguro,Brazil,-16.42960569,-39.08002832
BRA,Barreiras,Brazil,-12.13999673,-45.00000289
BRB,Barreirinhas,Brazil,-2.833333,-42.833333
BSB,Brasilia,Brazil,-15.78334023,-47.91605229
BSS,Balsas,Brazil,-7.520020326,-46.04999048
BVB,Boa Vista,Brazil,2.816092955,-60.66599756
BVH,Vilhena,Brazil,-12.71660236,-60.11659957
BVM,Belmonte,Brazil,-15.85,-38.9
BVS,Breves,Brazil,-1.680015036,-50.4900037
BYO,Bonito,Brazil,-4.55,-38.65
BZC,Buzios,Brazil,-22.769444,-41.964444
CAC,Cascavel,Brazil,-24.95957599,-53.46002914
CAF,Carauari,Brazil,-4.9,-66.916667
CAU,Caruaru,Brazil,-8.280025616,-35.98001083
CAW,Campos,Brazil,-21.74995278,-41.32002079
CBW,Campo Mourao,Brazil,-24.05,-52.366667
CCI,Concordia,Brazil,-27.23003172,-52.03001306
CCM,Criciuma,Brazil,-28.68002073,-49.38996749
CCQ,Cachoeira,Brazil,-12.6,-38.966667
CCX,Caceres,Brazil,-16.043611,-57.63
CDI,Cachoeiro Itapemirim,Brazil,-12.416667,-41.633333
CDJ,Conceicao Do Araguaia,Brazil,-8.283333,-49.283333
CFB,Cabo Frio,Brazil,-22.88998655,-42.03997685
CFC,Cacador,Brazil,-26.77000812,-51.02002303
CFO,Confreza,Brazil,-10.633333,-51.566667
CGB,Cuiaba,Brazil,-15.56960651,-56.08498519
CGH,Sao Paulo,Brazil,-23.626667,-46.655278
CGR,Campo Grande,Brazil,-20.45003213,-54.61662521
CIZ,Coari,Brazil,-4.079971905,-63.12998153
CKO,Cornelio Procopio,Brazil,-23.152222,-50.602222
CKS,Parauapebas,Brazil,-6.0,-51.333333
CLN,Carolina,Brazil,-7.35,-47.433333
CLV,Caldas Novas,Brazil,-17.724722,-48.61
CMC,Camocim,Brazil,-2.89999225,-40.85002364
CMG,Corumba,Brazil,-19.01601113,-57.65000594
CMP,Campo Alegre,Brazil,-9.333333,-50.333333
CMT,Cameta,Brazil,-2.239619121,-49.509986
CNF,Belo Horizonte,Brazil,-19.633611,-43.968889
CNV,Canavieiras,Brazil,-15.64004148,-38.96000981
CPU,Cururupu,Brazil,-1.8,-44.866667
CPV,Campina Grande,Brazil,-7.230012188,-35.88001693
CQA,Canarana Airport,Brazil,-4.45,-44.533333
CRQ,Caravelas,Brazil,-17.65,-39.25
CSS,Cassilandia,Brazil,-19.15,-51.75
CSU,Santa Cruz Do Sul,Brazil,-29.716667,-52.433333
CSW,Colorado do Oeste,Brazil,-22.816667,-51.95
CTP,Carutapera,Brazil,-1.25,-46.016667
CTQ,Do Palmar,Brazil,-18.833333,-50.133333
CWB,Curitiba,Brazil,-25.528611,-49.175833
CXJ,Caxias do Sul,Brazil,-29.17999022,-51.17003972
CZB,Carlos Ruhl,Brazil,-28.633333,-53.5
CZS,Cruzeiro do Sul,Brazil,-7.629987774,-72.66996769
DIQ,Divinopolis,Brazil,-20.14953367,-44.89998316
DMT,Diamantino,Brazil,-14.416667,-56.45
DNO,Dianopolis,Brazil,-11.616667,-46.85
DOU,Dourados,Brazil,-22.23002684,-54.80999841
ERM,Erechim,Brazil,-27.63000731,-52.26999841
ERN,Eirunepe,Brazil,-6.66002114,-69.87380762
ESI,Espinosa,Brazil,-14.933333,-42.833333
FBE,Francisco Beltrao,Brazil,-26.083333,-53.066667
FEC,Feira de Santana,Brazil,-12.25001585,-38.9700092
FEJ,Feijo,Brazil,-7.0,-36.016667
FEN,Fernando de Noronha,Brazil,-3.85,-32.416667
FLB,Cangapara,Brazil,-6.833333,-43.0
FLN,Florianopolis,Brazil,-27.57998452,-48.52002059
FOR,Fortaleza,Brazil,-3.750017884,-38.57998132
FRC,Franca,Brazil,-20.53002724,-47.39001205
GCV,Gravatai,Brazil,-29.95,-50.983333
GDP,Guadalupe,Brazil,-6.781944,-43.581667
GEL,Santo Angelo,Brazil,-28.30004393,-54.28003076
GIG,Rio de Janeiro,Brazil,-22.808889,-43.243611
GJM,Guajara-Mirim,Brazil,-10.833333,-65.333333
GMS,Guimaraes,Brazil,-2.133333,-44.6
GNM,Guanambi,Brazil,-14.22958494,-42.78998275
GPB,Tancredo Thomaz Faria,Brazil,-25.383333,-51.45
GRP,Gurupi,Brazil,-11.71960895,-49.05998763
GRU,Sao Paulo,Brazil,-23.431944,-46.469444
GUJ,Guaratingueta,Brazil,-22.81996499,-45.18999129
GUZ,Guarapari,Brazil,-20.666667,-40.5
GVR,Governador Valadares,Brazil,-18.87002521,-41.97000696
GYN,Goiania,Brazil,-16.72002724,-49.30002466
HRZ,Horizontina,Brazil,-27.616667,-54.316667
IDO,Rio,Brazil,-11.572222,-50.666111
IGU,Foz do Iguacu,Brazil,-25.52346922,-54.52998967
IJU,J. Batista Bos Filho Airport,Brazil,-28.418611,-53.916667
ILB,Ilha Solteira,Brazil,-20.383333,-51.333333
IMP,Imperatriz,Brazil,-5.520039043,-47.49000594
IOS,Ilheus,Brazil,-14.7800423,-39.05000431
IPG,Ipiranga,Brazil,-3.333333,-69.416667
IPN,Ipatinga,Brazil,-19.4796004,-42.51999923
IPU,Ipiau,Brazil,-14.133333,-39.733333
IRE,Irece,Brazil,-11.29999632,-41.87001306
ITA,Itacoatiara,Brazil,-3.140029278,-58.43998356
ITB,Itaituba,Brazil,-4.258617331,-55.92502079
ITE,Itubera,Brazil,-13.7,-39.2
ITI,Itambacuri,Brazil,-18.016667,-41.7
ITN,Itabuna,Brazil,-14.78960244,-39.28001611
ITP,Itaperuna,Brazil,-21.2,-41.9
ITQ,Itaqui,Brazil,-29.166667,-56.533333
ITR,Hidroeletrica,Brazil,-18.444722,-49.213333
IZA,Juiz de Fora Zona da Mata,Brazil,-2.45,-54.7
JCB,Joacaba,Brazil,-27.17003538,-51.4999679
JCM,Jacobina,Brazil,-11.183333,-40.516667
JCR,Jacareacanga,Brazil,-6.266608461,-57.65000594
JDF,Francisco De Assis,Brazil,-21.75,-43.333333
JDO,Juazeiro do Norte,Brazil,-7.210013409,-39.32001367
JEQ,Jequie,Brazil,-13.85002155,-40.07999312
JIA,Juina,Brazil,-11.3995768,-59.50002222
JNA,Januaria,Brazil,-15.47999957,-44.36998967
JOI,Joinville,Brazil,-26.31995807,-48.83994938
JPA,Joao Pessoa,Brazil,-7.10113513,-34.87607117
JPR,Ji-Parana,Brazil,-10.83330646,-61.96700342
JRN,Juruena,Brazil,-10.305556,-58.488889
JTC,Bauru,Brazil,-22.33002073,-49.08001225
JTI,Jatai,Brazil,-17.87959471,-51.75000431
LAJ,Lages,Brazil,-27.8,-50.316667
LAZ,Bom Jesus Da Lapa,Brazil,-13.266667,-43.416667
LBR,Labrea,Brazil,-7.25,-64.783333
LCB,Pontes e Lacerda,Brazil,-15.21960203,-59.3499797
LDB,Londrina,Brazil,-23.30003904,-51.17998743
LEC,Lencois,Brazil,-24.623889,-48.027778
LEP,Leopoldina,Brazil,-21.53001788,-42.64004358
LIP,Lins,Brazil,-21.666667,-49.75
LOI,Helmuth Baungartem,Brazil,-4.383333,-51.916667
LVB,Dos Galpoes,Brazil,-30.85,-55.6
MAB,Maraba,Brazil,-5.349971905,-49.11597905
MAO,Manaus,Brazil,-3.038611,-60.047222
MBK,Matupa,Brazil,-10.241667,-54.954167
MBZ,Maues,Brazil,-3.389626446,-57.72002751
MCP,Macapa,Brazil,0.066667,-51.066667
MCZ,Maceio,Brazil,-9.619995505,-35.72997441
MEA,Macae,Brazil,-22.37999184,-41.78999211
MEU,Monte Dourado,Brazil,-0.884444,-52.6
MGF,Maringa,Brazil,-23.4095414,-51.92996749
MII,Marilia,Brazil,-22.21002806,-49.95001083
MNX,Manicore,Brazil,-5.812165915,-61.29748356
MOC,Montes Claros,Brazil,-16.72002724,-43.86002079
MTE,Monte Alegre,Brazil,-2.016667,-54.066667
MTG,Mato Grosso,Brazil,-15.00002887,-59.95002059
MVF,Dixsept Rosado,Brazil,-5.183333,-37.333333
MVS,Aeroporto Max Feffer,Brazil,-18.048889,-39.864167
NAT,Natal,Brazil,-5.780023174,-35.24000431
NBV,Cana Brava,Brazil,-13.538056,-48.246944
NNU,Nanuque,Brazil,-17.83995888,-40.35002832
NOK,Nova Xavantina,Brazil,-27.083333,-52.333333
NQL,Niquelandia,Brazil,-14.46962197,-48.47002364
NTM,Miracema Do Norte,Brazil,-9.183333,-48.5
NVP,Novo Aripuana,Brazil,-5.133333,-60.366667
NVT,Navegantes,Brazil,-26.916667,-48.583333
OAL,Cacoal,Brazil,-1.983333,-46.216667
OBI,Obidos,Brazil,-1.910026836,-55.52000676
OIA,Ourilandia,Brazil,-2.45,-54.7
OPS,Sinop (BR),Brazil,-12.084722,-55.633889
ORX,Oriximina,Brazil,-1.759596742,-55.86998539
OUS,Ourinhos,Brazil,-22.97003335,-49.86998987
OYK,Oiapoque,Brazil,3.866667,-51.8
PAV,Paulo Afonso,Brazil,-9.330659161,-38.26565943
PBB,Paranaiba,Brazil,-19.6795882,-51.20001205
PBQ,Pimenta Bueno,Brazil,-11.64002724,-61.20999536
PBV,Porto Dos Gauchos,Brazil,-21.35,-51.866667
PBX,Porto Alegre Do Norte,Brazil,-10.860556,-51.684444
PCS,Picos,Brazil,-7.079995505,-41.43998763
PDF,Prado,Brazil,-17.35,-39.216667
PET,Pelotas,Brazil,-31.75001422,-52.33002059
PFB,Passo Fundo,Brazil,-28.25002114,-52.41998926
PGG,Progresso,Brazil,-6.95,-55.45
PHB,Parnaiba,Brazil,-2.910017478,-41.76996749
PHI,Pinheiro,Brazil,-2.519602032,-45.0899974
PIG,Pitinga,Brazil,0.783611,-60.078611
PIN,Parintins,Brazil,-2.610035788,-56.74000981
PIV,Pirapora,Brazil,-17.33001585,-44.92998132
PLL,Ponta Pelada,Brazil,-3.146111,-59.986389
PLU,Belo Horizonte,Brazil,-19.755556,-43.75
PMW,Palmas,Brazil,-10.23773558,-48.2877867
PNB,Porto Nacional,Brazil,-10.70003294,-48.41994918
PNZ,Petrolina,Brazil,-9.380010153,-40.50996688
POA,Porto Alegre,Brazil,-30.0,-51.2
POJ,Patos de Minas,Brazil,-2.45,-54.7
POO,Pocos De Caldas,Brazil,-21.841389,-46.5675
PPB,President Prudente,Brazil,-22.177778,-51.418333
PPY,Pouso Alegre,Brazil,-22.22000161,-45.94002303
PSW,Passos,Brazil,-20.71001626,-46.60998214
PTQ,Porto de Moz,Brazil,-1.738889,-52.244444
PVH,Porto Velho,Brazil,-8.750022767,-63.90001205
PVI,Edu Chaves,Brazil,-23.09,-52.488611
RAO,Ribeirao Preto,Brazil,-21.17003986,-47.82998519
RBB,Borba,Brazil,-4.4,-59.583333
RBR,Rio Branco,Brazil,-9.966589336,-67.80000655
RDC,Redencao,Brazil,-8.030278,-49.98
REC,Recife,Brazil,-8.075645326,-34.91560551
RIA,Santa Maria (BR),Brazil,-29.683056,-53.691667
RIG,Rio Grande (BR),Brazil,-32.083333,-52.166667
ROO,Rondonopolis,Brazil,-16.4694999,-54.63998295
RRN,Serra Norte,Brazil,-6.0,-50.3
RSG,Serra Pelada,Brazil,-5.95,-49.65
RVD,Rio Verde,Brazil,-17.81959837,-50.92997685
RWS,Sumare,Brazil,-22.8,-47.283333
SBJ,Sao Mateus,Brazil,-18.72962034,-39.85998071
SDU,Rio de Janeiro,Brazil,-22.833333,-43.25
SEI,Senhor Do Bonfim,Brazil,-10.45,-40.183333
SFV,Santa Fe Do Sul,Brazil,-20.216667,-50.933333
SJK,Sao Jose Dos Campos,Brazil,-23.183333,-46.116667
SJL,Sao Gabriel Cachoeira,Brazil,-30.333333,-54.316667
SJP,Sao Jose do Rio Preto,Brazil,-20.79962319,-49.38996749
SLZ,Sao Luiz,Brazil,-2.585278,-44.234167
SOD,Sorocaba,Brazil,-23.49000161,-47.46998132
SQM,S_______o Miguel de Aragao,Brazil,-13.331389,-50.1975
SQX,Sao Miguel do Oeste,Brazil,-26.781667,-53.503611
SQY,Sao Lourenco Do Sul,Brazil,-31.366667,-51.966667
SSA,Salvador,Brazil,-12.9699719,-38.47998743
SSO,Sao Lourenco,Brazil,-22.1,-45.033333
SSZ,Santos,Brazil,-23.95372393,-46.33294266
STM,Santarem,Brazil,-2.45,-54.7
STZ,Confresa,Brazil,-10.464444,-50.052778
SWM,Suia-Missu,Brazil,-11.666667,-51.420833
SXO,Sao Felix Do Araguaia,Brazil,-11.633333,-50.666667
SXX,Sao Felix Do Xingu,Brazil,-6.634444,-51.984444
TBT,Tabatinga,Brazil,-3.95,-38.7
TEC,Telemaco Borba,Brazil,-24.32995034,-50.61999577
TFF,Tefe,Brazil,-3.36001585,-64.69998906
TFL,Teofilo Otoni,Brazil,-17.87003457,-41.50000981
TGQ,Tangara da Serra,Brazil,-6.183333,-35.816667
THE,Teresina,Brazil,-5.095000388,-42.7800092
TJL,Tres Lagoas,Brazil,-20.79001137,-51.72000615
TLZ,Catalao,Brazil,-18.18004148,-47.9500037
TMT,Trombetas,Brazil,-13.466667,-48.75
TRQ,Tarauaca,Brazil,-8.166667,-70.766667
TSQ,Torres,Brazil,10.166667,-70.25
TUR,Tucurui,Brazil,-3.679996319,-49.71999903
TUZ,Tucuma,Brazil,-0.183333,-50.05
TXF,Teixeira de Freitas,Brazil,-8.5,-70.533333
UBA,Uberaba,Brazil,-19.7799955,-47.9500037
UBT,Ubatuba,Brazil,-23.433333,-45.066667
UDI,Uberlandia,Brazil,-18.89999754,-48.27998356
UMU,Ernesto Geisel,Brazil,-23.75,-53.333333
UNA,Una,Brazil,-15.355278,-38.998889
URB,Ernesto Pochler,Brazil,-20.8,-51.566667
URG,Uruguaiana,Brazil,-29.76961831,-57.08998845
VAG,Maj. Brig. Trompowsky,Brazil,-21.55,-45.433333
VAL,Valenca,Brazil,-13.3596122,-39.08002832
VCP,Sao Paulo,Brazil,-23.0075,-47.134444
VDC,Vitoria Da Conquista,Brazil,-14.883333,-40.866667
VIA,Vienna,Brazil,-2.45,-54.7
VIX,Vitoria (BR),Brazil,-20.3,-40.25
VOT,Votuporanga,Brazil,-20.4,-49.983333
XAP,Chapeco,Brazil,-27.133333,-52.651944
ZFU,Aruja,Brazil,-23.4,-46.333333
ZMD,Sena Madureira,Brazil,-9.070003236,-68.66997929
BWN,Bandar Seri Begawan,Brunei Darussalam,4.883331115,114.9332841
BOJ,Burgas,Bulgaria,42.51460004,27.47464311
GOZ,Gorna Oriahovitsa,Bulgaria,43.151389,25.712778
HKV,Haskovo,Bulgaria,41.966667,25.5
JAM,Jambol,Bulgaria,42.516667,26.483333
KDG,Kardjali,Bulgaria,42.102222,25.218611
PDV,Plovdiv,Bulgaria,42.15397605,24.7539823
PVN,Pleven,Bulgaria,43.42376935,24.61337073
ROU,Rousse,Bulgaria,43.833333,25.983333
SLS,Silistra,Bulgaria,44.016667,27.183333
SOF,Sofia,Bulgaria,42.68334943,23.31665401
SZR,Stara Zagora,Bulgaria,42.42313275,25.6227148
TGV,Targovishte,Bulgaria,43.0,26.6
VAR,Varna,Bulgaria,43.21564252,27.89528926
VID,Vidin,Bulgaria,43.983333,22.816667
ARL,Arly,Burkina Faso,11.583333,1.25
BNR,Banfora,Burkina Faso,10.63044802,-4.760004315
BOY,Bobo Dioulasso,Burkina Faso,11.1799752,-4.289981325
DGU,Dedougou,Burkina Faso,12.455001,-3.464000439
DIP,Diapaga,Burkina Faso,12.07700108,1.796004571
DOR,Dori,Burkina Faso,14.0339971,-0.027998519
FNG,Fada Ngourma,Burkina Faso,12.05499605,0.360999451
OUA,Ouagadougou,Burkina Faso,12.37031598,-1.524723756
OUG,Ouahigouya,Burkina Faso,13.5704236,-2.419992108
PUP,Po,Burkina Faso,11.16900002,-1.134998478
TEG,Tenkodogo,Burkina Faso,11.78040367,-0.369703818
TMQ,Tambao,Burkina Faso,14.8,50.0
TUQ,Tougan,Burkina Faso,13.06899899,-3.069998409
XAR,Aribinda,Burkina Faso,14.233333,-0.866667
XBG,Bogande,Burkina Faso,12.96900003,-0.1379965
XBO,Boulsa,Burkina Faso,12.65699714,-0.568997532
XDE,Diebougou,Burkina Faso,10.95200113,-3.248000411
XDJ,Djibo,Burkina Faso,14.09900404,-1.627001421
XGA,Gaoua,Burkina Faso,10.32499811,-3.174002407
XGG,Gorom-Gorom,Burkina Faso,14.433333,-0.233333
XKA,Kantchari,Burkina Faso,12.483333,1.516667
XKY,Kaya,Burkina Faso,13.09037539,-1.090047446
XLU,Leo,Burkina Faso,11.09400299,-2.097998529
XNU,Nouna,Burkina Faso,12.7289971,-3.860000519
XPA,Pama,Burkina Faso,11.25,0.7
XSE,Sebba,Burkina Faso,13.4364122,0.530443
XZA,Zabre,Burkina Faso,11.133333,-1.0
BJM,Bujumbura,Burundi,-3.37608722,29.36000606
GID,Gitega,Burundi,-3.426006654,29.84359411
KRE,Kirundo,Burundi,-2.5847222,30.0972222
BBM,Battambang,Cambodia,13.10001304,103.2000468
HPP,Poipet,Cambodia,13.656111,102.5625
KKZ,Koh Kong,Cambodia,11.633333,102.966667
KMT,Kampot,Cambodia,10.61708966,104.1833459
KOS,Sihanoukville,Cambodia,10.6,103.683333
KTI,Kratie,Cambodia,12.483333,106.05
KZC,Kompong-Chhna,Cambodia,12.233333,104.666667
KZD,Krakor,Cambodia,12.533333,104.15
KZK,Kompong Thom,Cambodia,12.716667,104.9
MWV,Mundulkiri,Cambodia,12.8,107.0
OMY,Oddor Meanche,Cambodia,13.816667,104.966667
PAI,Pailin,Cambodia,12.85,102.583333
PNH,Phnom Penh,Cambodia,11.55003013,104.9166345
RBE,Ratanakiri,Cambodia,13.833333,107.0
REP,Siem Reap,Cambodia,13.36663759,103.8500329
TNX,Stung Treng,Cambodia,13.533333,106.033333
BFX,Bafoussam,Cameroon,5.490425841,10.40994828
BPC,Bamenda,Cameroon,5.959983743,10.15001583
BTA,Yaound_______,Cameroon,4.583333,13.683333
DLA,Douala,Cameroon,4.060409769,9.709991006
DSC,Dschang,Cameroon,5.833333,10.091667
EBW,Ebolowa,Cameroon,2.900015481,11.15000647
FOM,Foumban,Cameroon,5.730385355,10.89999589
GOU,Garoua,Cameroon,9.30001243,13.39002478
GXX,Yagoua,Cameroon,10.360278,15.237222
KBI,Kribi,Cameroon,2.940426452,9.910030476
KLE,Kaele,Cameroon,10.1,14.45
KOB,Koutaba,Cameroon,5.0,10.008333
MMF,Mamfe,Cameroon,5.716667,9.3
MVR,Maroua,Cameroon,10.59556643,14.32469641
NGE,Ngaoundere,Cameroon,7.320365823,13.57998734
NKS,Nkongsamba,Cameroon,4.960406513,9.940002806
NSI,Yaounde,Cameroon,3.7225,11.553333
OUR,Batouri,Cameroon,4.433694477,14.366606
TKC,Tiko,Cameroon,4.089167,9.360556
VCC,Limbe,Cameroon,4.030385761,9.190022744
YAO,Yaounde Airport,Cameroon,3.833611,11.523611
AKV,Akulivik,Canada,60.733333,-78.583333
CFQ,Creston Valley Airport,Canada,49.036944,-116.498333
CJH,Chilko Lake,Canada,62.0,-133.0
CXH,Vancouver,Canada,49.289722,-123.115833
DAS,Great Bear Lake,Canada,62.0,-133.0
DUQ,Duncan/Quam,Canada,48.783333,-123.7
DVK,Diavik,Canada,64.511389,-110.289444
HNX,Hanna,Canada,51.631389,-111.904167
ILF,Ilford,Canada,56.066667,-95.583333
IUM,Summit Lake,Canada,54.283333,-122.633333
KES,Kelsey,Canada,56.25,-96.966667
KEW,Keewaywin,Canada,49.766667,-94.55
KIF,Kingfisher Lake,Canada,53.033333,-89.833333
KNV,Knights Inlet,Canada,60.583333,-64.583333
KNY,Kinoosao,Canada,62.0,-133.0
LAK,Aklavik,Canada,68.216667,-135.0
LRQ,Laurie River,Canada,56.25,-101.3
MSA,Muskrat Dam,Canada,53.833333,-92.0
NWP,NS,Canada,47.3,-54.0
PIW,Pikwitonei,Canada,55.583333,-97.15
QBC,Bella Coola,Canada,52.3875,-126.595833
SSQ,La Sarre,Canada,48.8000045,-79.20003422
SUR,Summer Beaver,Canada,76.4,-88.883333
SYF,Silva Bay,Canada,3.483333,-77.2
TIL,Inverlake,Canada,62.0,-133.0
TUX,Tumbler Ridge,Canada,62.0,-133.0
WNN,Wunnummin Lake,Canada,52.916667,-89.166667
WPC,Pincher Creek,Canada,49.483333,-113.95
WPL,Powell Lake,Canada,50.183333,-124.4
XBB,Blubber Bay,Canada,49.8,-124.633333
XBE,Bearskin Lake,Canada,53.966667,-91.05
XBR,Brockville,Canada,44.5892796,-75.69531275
XBW,Killineq,Canada,42.65,-80.816667
XCL,Cluff Lake,Canada,58.383333,-109.516667
XCM,Chatham,Canada,42.4,-82.183333
XDV,Pr. George Rail Stn,Canada,62.0,-133.0
XDW,Pr. Rupert Rail Stn,Canada,62.0,-133.0
XDY,Sudbury Jct Rail Stn,Canada,46.5,-80.966667
XEA,Vancouver Rail Stn.,Canada,62.0,-133.0
XFY,Sainte-Foy Rail Svce.,Canada,46.8,-71.25
XFZ,Charny,Canada,46.8,-71.25
XGL,Granville Lake,Canada,56.3,-100.5
XGR,Kangiqsualujjuaq,Canada,58.533333,-65.9
XKO,Kemano,Canada,53.566667,-127.933333
XKS,Kasabonika,Canada,53.533333,-88.75
XLB,Lac Brochet,Canada,58.6175,-101.468889
XLF,Leaf Bay,Canada,59.0,-69.0
XLJ,Quebec Stn. Rail Svce.,Canada,46.8,-71.25
XLM,St Lambert Rail Svce.,Canada,45.5,-73.583333
XMP,Macmillan Pass,Canada,62.866667,-135.916667
XPK,Pukatawagan,Canada,55.73327639,-101.3166171
XPP,Poplar River,Canada,53.0,-97.4
XQU,Qualicum,Canada,49.350556,-124.450556
XRR,Ross River,Canada,61.983333,-132.45
XSI,South Indian Lake,Canada,56.766667,-98.95
XTL,Tadoule Lake,Canada,58.708611,-98.512778
YAA,Anahim Lake,Canada,52.466667,-125.3
YAB,Arctic Bay,Canada,73.03330568,-85.16662093
YAC,Cat Lake,Canada,51.71703575,-91.79998865
YAE,Alta Lake,Canada,62.0,-133.0
YAF,Asbestos Hill,Canada,45.766667,-71.95
YAG,Fort Frances,Canada,48.6,-93.4
YAH,Lagrande 4,Canada,53.75,-73.65
YAJ,Lyall Harbour,Canada,62.0,-133.0
YAL,Alert Bay,Canada,50.583333,-126.933333
YAM,Sault Ste Marie (CA),Canada,46.483333,-84.5
YAQ,Maple Bay,Canada,62.0,-133.0
YAR,Lagrande 3,Canada,53.55,-76.2
YAT,Attawapiskat,Canada,52.91662661,-82.43332524
YAU,Kattiniq/Donaldson,Canada,61.662778,-73.321389
YAV,Miners Bay,Canada,62.0,-133.0
YAX,Angling Lake,Canada,53.251944,-89.565
YAY,St Anthony,Canada,51.366667,-55.583333
YAZ,Tofino Airport,Canada,49.082222,-125.7725
YBA,Banff,Canada,51.17799888,-115.5719227
YBB,Pelly Bay,Canada,68.886111,-89.85
YBC,Baie Comeau,Canada,49.2,-68.266667
YBD,New Westminster,Canada,46.25,-60.083333
YBE,Uranium City,Canada,59.56655662,-108.6165849
YBF,Bamfield,Canada,48.833333,-125.133333
YBG,Bagotville,Canada,48.333333,-70.983333
YBH,Bull Harbour,Canada,50.9,-127.916667
YBI,Black Tickle,Canada,53.45,-55.733333
YBJ,Baie Johan Beetz,Canada,50.5,-62.916667
YBK,Baker Lake,Canada,64.31699017,-96.01665633
YBL,Campbell River,Canada,49.95,-125.266667
YBM,Bronson Creek,Canada,56.7,-137.133333
YBN,Borden,Canada,44.283333,-79.916667
YBQ,Telegraph Harbour,Canada,62.0,-133.0
YBR,Brandon,Canada,49.83327476,-99.94998214
YBS,Musselwhite,Canada,48.0,-87.0
YBT,Brochet,Canada,57.88322268,-101.6665957
YBV,Berens River,Canada,52.36655682,-97.03331262
YBW,Springbank,Canada,51.103056,-114.374444
YBX,Blanc Sablon,Canada,51.433333,-57.183333
YBY,Bonnyville,Canada,54.304167,-110.743611
YCA,Courtenay,Canada,49.68333559,-124.9999777
YCB,Cambridge Bay,Canada,69.11695559,-105.0333153
YCC,Regional,Canada,45.1,-74.566667
YCD,Nanaimo,Canada,49.166667,-123.933333
YCF,Cortes Bay,Canada,50.066667,-124.933333
YCG,Castlegar,Canada,49.3,-117.633333
YCH,Miramichi,Canada,47.166667,-65.0
YCI,Caribou Island,Canada,47.366667,-85.816667
YCJ,Cape St James,Canada,51.933333,-131.016667
YCK,Colville Lake,Canada,67.316667,-125.666667
YCL,Charlo,Canada,47.990833,-66.330278
YCM,St Catharines,Canada,43.2,-79.166667
YCN,Cochrane,Canada,-47.26627643,-72.54994918
YCO,Kugluktuk Coppermine,Canada,67.833333,-115.083333
YCP,Co-op Point,Canada,57.083333,-103.0
YCQ,Chetwynd,Canada,55.7,-121.666667
YCR,Cross Lake,Canada,54.6,-97.766667
YCS,Chesterfield Inlet,Canada,63.33829022,-90.70008163
YCT,Coronation,Canada,52.075,-111.445278
YCV,Cartierville,Canada,45.516667,-73.716667
YCW,Chilliwack Municipal Airport,Canada,49.152778,-121.938889
YCX,Gagetown,Canada,45.783333,-66.15
YCY,Clyde River,Canada,70.483333,-68.516667
YCZ,Fairmont Hot Springs,Canada,50.330278,-115.873333
YDA,Dawson City,Canada,64.0666437,-139.4166687
YDB,Burwash Landings,Canada,61.35,-139.0
YDC,Industrial Airport,Canada,53.216667,-114.983333
YDE,Paradise River,Canada,53.433333,-57.233333
YDF,Deer Lake (CA) NL,Canada,49.216667,-57.4
YDG,Digby,Canada,44.62258506,-65.7604928
YDH,Daniels Harbour,Canada,62.0,-133.0
YDI,Davis Inlet,Canada,55.933333,-60.95
YDJ,Hatchet Lake,Canada,62.0,-133.0
YDK,Main Duck Island,Canada,43.933333,-76.616667
YDL,Dease Lake,Canada,58.45034568,-130.033288
YDN,Dauphin,Canada,51.15001609,-100.0499502
YDO,St Methode,Canada,48.883333,-72.233333
YDP,Nain,Canada,56.54735147,-61.6860454
YDQ,Dawson Creek,Canada,55.76696942,-120.233266
YDR,Broadview,Canada,50.333333,-102.5
YDS,Desolation Sound,Canada,47.75,-122.25
YDT,Boundary Bay,Canada,49.066667,-123.0
YDW,Obre Lake,Canada,8.8,-80.283333
YDX,Doc Creek,Canada,52.05,-128.083333
YED,Namao Fld,Canada,53.319444,-113.6
YEG,Edmonton,Canada,53.309722,-113.579722
YEK,Arviat,Canada,61.10859211,-94.05860672
YEL,Elliot Lake,Canada,46.35,-82.55
YEM,East Manitoulin,Canada,45.8475,-81.862778
YEN,Estevan,Canada,49.066667,-103.0
YEP,Estevan Point,Canada,49.383333,-126.55
YER,Fort Severn,Canada,55.98333864,-87.64998356
YET,Edson,Canada,53.583333,-116.433333
YEU,Eureka,Canada,40.80222394,-124.1474974
YEV,Inuvik,Canada,68.34997398,-133.6999893
YEY,Amos,Canada,48.56663373,-78.11666366
YFA,Fort Albany,Canada,52.241667,-81.591667
YFB,Iqaluit,Canada,63.75045938,-68.50019175
YFC,Fredericton,Canada,45.94999758,-66.63330774
YFE,Forestville,Canada,48.733333,-69.1
YFG,Fontanges,Canada,54.55,-71.183333
YFH,Fort Hope,Canada,51.55,-87.983333
YFJ,Snare Lake,Canada,62.0,-133.0
YFL,Fort Reliance,Canada,62.711944,-109.162778
YFO,Flin Flon,Canada,54.76659121,-101.8833008
YFR,Fort Resolution,Canada,61.16658815,-113.682994
YFS,Fort Simpson,Canada,61.84998313,-121.3332764
YFX,Fox Harbour,Canada,52.366667,-55.683333
YGA,Gagnon,Canada,51.95,-68.133333
YGB,Gillies Bay,Canada,49.7,-124.533333
YGC,Grande Cache,Canada,51.2,-96.45
YGE,Gorge Harbor,Canada,50.083333,-124.95
YGG,Ganges Harbor,Canada,48.85,-123.5
YGH,Fort Good Hope,Canada,66.26661277,-128.6333218
YGK,Kingston (CA),Canada,44.233333,-76.583333
YGL,La Grande,Canada,45.32468691,-118.0866012
YGM,Gimli,Canada,50.63330345,-96.99998133
YGN,Greenway Sound,Canada,50.85,-126.85
YGO,Gods Narrows,Canada,54.55,-94.483333
YGP,Gaspe,Canada,48.83731488,-64.49336084
YGQ,Geraldton,Canada,48.0,-87.0
YGR,Iles de la Madeleine,Canada,47.416667,-61.866667
YGS,Germansen,Canada,55.616667,-124.833333
YGT,Igloolik,Canada,69.25653506,-81.79359213
YGV,Havre St Pierre,Canada,50.25,-63.583333
YGW,Kuujjuarapik,Canada,55.28149518,-77.76583236
YGX,Gillam,Canada,56.34998293,-94.69996668
YGY,Deception,Canada,62.116667,-74.616667
YGZ,Grise Fiord,Canada,76.44165061,-82.94998621
YHA,Port Hope Simpson,Canada,52.53329083,-56.30001083
YHB,Hudson Bay,Canada,52.8504291,-102.3832961
YHC,Hakai Pass,Canada,51.733333,-128.116667
YHD,Dryden,Canada,49.78332949,-92.83333643
YHE,Hope,Canada,49.383333,-121.433333
YHF,Hearst,Canada,49.70049217,-83.66658329
YHG,Charlottetown,Canada,46.24928164,-63.13132512
YHH,Harbor SPB,Canada,62.0,-133.0
YHI,Ulukhaktok,Canada,70.716667,-117.716667
YHK,Gjoa Haven,Canada,68.63329002,-95.91666244
YHM,Toronto,Canada,43.166667,-79.933333
YHN,Hornepayne,Canada,49.216667,-84.783333
YHO,Hopedale,Canada,55.44996035,-60.21667098
YHP,Poplar Hill,Canada,52.083333,-94.3
YHR,Chevery,Canada,50.48132306,-59.60978296
YHS,Sechelt,Canada,49.466667,-123.75
YHT,Haines Junction,Canada,60.75,-137.5
YHU,Montreal,Canada,45.852778,-74.45
YHY,Hay River,Canada,60.84999249,-115.7000027
YHZ,Halifax,Canada,44.880833,-63.508611
YIB,Atikokan,Canada,48.75039512,-91.61658899
YIF,Pakuashipi,Canada,51.216667,-58.666667
YIG,Big Bay Marina,Canada,50.383333,-125.133333
YIK,Ivujivik,Canada,62.416667,-75.9
YIO,Pond Inlet,Canada,72.68498069,-78.00005579
YIV,Island Lk/Garden Hill,Canada,54.208333,-94.791667
YJF,Fort Liard,Canada,60.25,-123.466667
YJN,St Jean,Canada,45.316667,-73.266667
YJO,Johnny Mountain,Canada,56.666667,-131.116667
YJP,Jasper-hinton,Canada,53.319167,-117.753056
YJT,Stephenville,Canada,48.55040733,-58.56656498
YKA,Kamloops,Canada,50.66666058,-120.3332858
YKC,Collins Bay,Canada,58.233333,-103.666667
YKD,Township Airport,Canada,44.201389,-81.606667
YKE,Knee Lake,Canada,55.05,-94.666667
YKF,Toronto,Canada,43.460833,-80.378611
YKG,Kangirsuk,Canada,60.02482322,-69.99909713
YKI,Kennosao Lake,Canada,62.0,-133.0
YKJ,Key Lake,Canada,57.25,-105.6
YKK,Kitkatla,Canada,53.0,-130.0
YKL,Schefferville,Canada,54.80000002,-66.81665572
YKQ,Waskaganish,Canada,51.4875,-78.75
YKT,Klemtu,Canada,52.6,-128.516667
YKU,Chisasibi,Canada,53.816667,-79.0
YKX,Kirkland Lake,Canada,48.210278,-79.981389
YKY,Kindersley,Canada,51.46697349,-109.1332976
YKZ,Buttonville Municipal,Canada,43.862222,-79.37
YLA,Langara,Canada,54.233333,-133.0
YLB,Lac Biche,Canada,54.756667,-112.0025
YLC,Kimmirut/Lake Harbour,Canada,62.85,-69.883333
YLD,Chapleau,Canada,47.83370689,-83.40001042
YLE,Whati,Canada,63.15,-117.266667
YLF,LaForges,Canada,54.183333,-72.483333
YLH,Lansdowne House,Canada,52.21664349,-87.88332849
YLJ,Meadow Lake,Canada,54.13011843,-108.4347356
YLL,Lloydminster,Canada,53.309167,-110.0725
YLM,Clinton Creek,Canada,64.466667,-140.733333
YLO,Shilo,Canada,49.8,-99.633333
YLP,Mingan,Canada,50.3017589,-64.01726532
YLQ,La Tuque,Canada,47.416667,-72.8
YLR,Leaf Rapids,Canada,56.45,-100.0
YLS,Lebel-Sur-Quevillon,Canada,49.066667,-77.0
YLT,Alert,Canada,82.48332318,-62.24998356
YLW,Kelowna,Canada,49.89998903,-119.4833118
YLX,Long Point,Canada,59.35,-94.683333
YLY,Langley Regional,Canada,49.100833,-122.630833
YMA,Mayo,Canada,63.616667,-135.866667
YMB,Merritt,Canada,50.116667,-120.783333
YMC,Maricourt Airstrip,Canada,56.516667,-71.066667
YME,Matane,Canada,48.85,-67.55
YMF,Montagne Harbor,Canada,48.816667,-123.2
YMG,Manitouwadge,Canada,49.133333,-85.733333
YMI,Minaki,Canada,49.983333,-94.733333
YMJ,Moose Jaw / Air Vice Marshal C. M. Mcewen Airport,Canada,50.330278,-105.559167
YML,Charlevoix,Canada,47.5975,-70.223889
YMM,Fort Mcmurray,Canada,56.65,-111.216667
YMN,Makkovik,Canada,55.083333,-59.166667
YMO,Moosonee,Canada,51.28060244,-80.65798141
YMP,Port McNeil,Canada,50.583333,-127.1
YMR,Merry Island,Canada,62.0,-133.0
YMT,Chibougamau,Canada,49.916667,-74.366667
YMW,Maniwaki,Canada,46.272778,-75.990556
YMX,Mirabel,Canada,45.666667,-74.033333
YNA,Natashquan,Canada,50.19134076,-61.81065637
YNC,Wemindji,Canada,52.997222,-78.833333
YND,Ottawa,Canada,45.521389,-75.563611
YNE,Norway House,Canada,53.96658836,-97.83328963
YNF,Deer Lake/Stephenville,Canada,48.946944,-57.943889
YNI,Nitchequon,Canada,53.197222,-70.908333
YNK,Nootka Sound,Canada,50.083333,-125.916667
YNL,Points North Landing,Canada,58.275,-104.081111
YNM,Matagami,Canada,49.75038576,-77.63328231
YNO,North Spirit Lake,Canada,52.490556,-92.973056
YNP,Natuashish,Canada,55.912778,-61.185278
YNR,Arnes,Canada,50.836111,-96.957222
YNS,Nemiscau,Canada,51.7,-76.166667
YOA,Ekati,Canada,62.0,-133.0
YOC,Old Crow,Canada,67.566667,-139.85
YOD,Cold Lake,Canada,54.45,-110.166667
YOE,Falher,Canada,55.733333,-117.2
YOG,Ogoki,Canada,51.633333,-85.95
YOH,Oxford House,Canada,54.95040428,-95.26659876
YOJ,High Level,Canada,58.616667,-117.166667
YOO,Oshawa,Canada,43.87999473,-78.84997807
YOP,Rainbow Lake,Canada,58.5,-119.4
YOS,Billy Bishop Regional,Canada,44.666667,-80.916667
YOW,Ottawa,Canada,45.3225,-75.669167
YOY,Valcartier,Canada,46.883333,-71.483333
YPA,Glass Field,Canada,53.216667,-105.683333
YPB,Port Alberni,Canada,49.233333,-124.8
YPC,Paulatuk,Canada,69.38332176,-123.9833214
YPD,Parry Sound,Canada,45.33370445,-80.03300663
YPE,Peace River,Canada,56.23332338,-117.2832911
YPF,Esquimalt,Canada,48.433333,-123.4
YPG,Portage La Prairie,Canada,49.983333,-98.3
YPH,Inukjuak,Canada,58.47000856,-78.13599064
YPI,Port Simpson,Canada,54.55,-130.416667
YPJ,Aupaluk,Canada,59.066667,-69.55
YPL,Pickle Lake,Canada,51.5,-90.15
YPM,Pikangikum,Canada,51.816667,-94.0
YPN,Port Menier,Canada,49.833333,-64.283333
YPO,Peawanuck,Canada,54.983333,-85.433333
YPP,Pine Point,Canada,61.016667,-114.25
YPQ,Peterborough,Canada,48.0,-87.0
YPR,Prince Rupert,Canada,54.283333,-130.45
YPS,Port Hawkesbury,Canada,45.616667,-61.35
YPT,Pender Harbor,Canada,49.5,-124.033333
YPW,Powell River,Canada,49.88371096,-124.5499793
YPX,Puvirnituq,Canada,60.5,-77.233333
YPY,Fort Chipewyan,Canada,58.71709943,-111.1499962
YPZ,Burns Lake,Canada,54.21701235,-125.7665975
YQA,Muskoka,Canada,44.974722,-79.303333
YQB,Quebec,Canada,46.791111,-71.393333
YQC,Quaqtaq,Canada,61.333333,-69.633333
YQD,The Pas,Canada,53.81662335,-101.2333147
YQE,Kimberley,Canada,62.0,-133.0
YQF,Red Deer,Canada,52.26664044,-113.8000411
YQG,Windsor,Canada,42.266667,-82.966667
YQH,Watson Lake,Canada,60.1166264,-128.80003
YQI,Yarmouth,Canada,43.83079447,-66.1125812
YQK,Kenora,Canada,49.76668968,-94.46664758
YQL,Lethbridge,Canada,49.70049217,-112.8332784
YQM,Moncton,Canada,46.112222,-64.678611
YQN,Nakina,Canada,50.166667,-86.7
YQQ,Comox,Canada,49.710833,-124.886667
YQR,Regina,Canada,50.45003298,-104.6170099
YQS,Pembroke Area Mncpl,Canada,42.77,-81.11
YQT,Thunder Bay,Canada,48.44615013,-89.27497481
YQU,Grande Prairie,Canada,55.183333,-118.883333
YQV,Yorkton,Canada,51.21706626,-102.4665469
YQW,North Battleford,Canada,52.76663576,-108.2833494
YQX,Gander,Canada,48.94999534,-54.54998845
YQY,Sydney (CA),Canada,48.0,-87.0
YQZ,Quesnel,Canada,52.98367678,-122.4832837
YRA,Rae Lakes,Canada,64.116667,-117.35
YRB,Resolute,Canada,74.68333417,-94.90000615
YRD,Dean River,Canada,52.816667,-126.966667
YRE,Resolution Island,Canada,61.5,-65.0
YRF,Cartwright,Canada,53.70140663,-57.01214114
YRG,Rigolet,Canada,54.17660138,-58.44732162
YRI,Riviere Du Loup,Canada,47.766667,-69.583333
YRJ,Roberval,Canada,48.533333,-72.266667
YRL,Red Lake,Canada,51.03369244,-93.83330123
YRM,Rocky Mountain House,Canada,52.429722,-114.904167
YRN,Rivers Inlet,Canada,51.466667,-127.583333
YRQ,Trois-Rivieres,Canada,46.35,-72.55
YRR,Stuart Island,Canada,50.416667,-125.166667
YRS,Red Sucker Lake,Canada,54.166667,-93.583333
YRT,Rankin Inlet,Canada,62.81666831,-92.09531946
YRV,Revelstoke,Canada,51.0004645,-118.1833395
YSA,Sable Island,Canada,43.916667,-59.833333
YSB,Sudbury,Canada,46.49998985,-80.96664474
YSC,Sherbrooke,Canada,45.40000531,-71.89998885
YSD,Suffield,Canada,50.2,-111.166667
YSE,Squamish,Canada,49.781667,-123.161944
YSF,Stony Rapids,Canada,59.26657493,-105.8332664
YSG,Lutselke Snowdrift,Canada,62.4,-110.75
YSH,Smith Falls,Canada,44.833056,-76.115833
YSI,Sans Souci,Canada,45.266667,-80.0
YSJ,St John,Canada,45.316667,-65.883333
YSK,Sanikiluaq,Canada,56.55,-79.216667
YSL,St Leonard,Canada,47.183333,-67.9
YSM,Fort Smith (CA),Canada,60.016667,-111.966667
YSN,Salmon Arm,Canada,50.683333,-119.233333
YSO,Postville,Canada,54.916667,-59.766667
YSP,Marathon,Canada,48.75039512,-86.36665104
YSQ,Spring Island,Canada,62.0,-133.0
YSR,Nanisivik,Canada,63.066667,-71.416667
YSS,Slate Island,Canada,62.0,-133.0
YST,Ste Therese Point,Canada,53.833333,-94.833333
YSU,Summerside,Canada,46.433333,-63.833333
YSV,Saglek,Canada,58.466667,-62.633333
YSX,Shearwater,Canada,52.133333,-128.066667
YSY,Sachs Harbour,Canada,72.0,-125.0
YSZ,Squirrel Cove,Canada,50.05,-124.916667
YTA,Pembroke And Area Apt,Canada,45.864444,-77.251667
YTB,Hartley Bay,Canada,53.416667,-129.25
YTC,Sturdee,Canada,57.2,-127.15
YTD,Thicket Portage,Canada,55.316667,-97.7
YTE,Cape Dorset,Canada,64.31251972,-76.53857863
YTF,Alma,Canada,48.55,-71.65
YTG,Sullivan Bay,Canada,50.883333,-126.8
YTH,Thompson,Canada,55.74994204,-97.86662093
YTI,Triple Island,Canada,62.0,-133.0
YTK,Tulugak,Canada,48.0,-87.0
YTL,Big Trout Lake,Canada,53.75,-90.0
YTM,Mont Tremblant,Canada,46.25,-74.583333
YTN,Riviere Au Tonnerre,Canada,50.416667,-64.666667
YTO,Toronto Pearson International,Canada,43.338889,-79.619444
YTP,Seaplane Base,Canada,62.0,-133.0
YTQ,Tasiujuaq,Canada,58.668,-69.96
YTR,Trenton,Canada,40.2169625,-74.74335535
YTS,Timmins,Canada,48.46658815,-81.33331486
YTT,Tisdale,Canada,52.836667,-104.066667
YTX,Telegraph Creek,Canada,62.0,-133.0
YTZ,Toronto,Canada,43.6275,-79.396111
YUB,Tuktoyaktuk,Canada,69.45477459,-133.0492013
YUD,Umiujaq,Canada,53.983333,-76.533333
YUL,Montreal,Canada,45.470556,-73.740833
YUT,Repulse Bay,Canada,66.52946689,-86.28293502
YUX,Hall Beach,Canada,68.76746684,-81.23608303
YUY,Rouyn,Canada,48.216667,-78.833333
YVB,Bonaventure,Canada,48.071111,-65.460278
YVC,La Ronge,Canada,55.10000755,-105.3000173
YVE,Vernon Regional Airport,Canada,50.25,-119.333333
YVG,Vermilion,Canada,53.366667,-110.85
YVM,Qikiqtarjuaq,Canada,67.55,-64.033333
YVO,Val D'Or,Canada,48.1,-77.797
YVP,Kuujjuaq,Canada,58.10000531,-68.39999577
YVQ,Norman Wells,Canada,65.28372703,-126.8499681
YVR,Vancouver,Canada,49.193889,-123.183333
YVT,Buffalo Narrows,Canada,55.841944,-108.4175
YVV,Wiarton/Keppel Airport,Canada,44.745833,-81.107222
YVZ,Deer Lake (CA) ON,Canada,52.666667,-94.5
YWA,Petawawa,Canada,45.9,-77.283333
YWB,Kangiqsujuaq,Canada,61.6,-71.966667
YWF,Dwtown Waterfront H/P,Canada,44.65,-63.6
YWG,Winnipeg,Canada,49.88298749,-97.16599186
YWH,Victoria (CA),Canada,48.422778,-123.3875
YWJ,Deline,Canada,65.183333,-123.416667
YWK,Wabush,Canada,52.916667,-66.866667
YWL,Williams Lake,Canada,52.1166496,-122.1499966
YWM,Williams Harbour,Canada,52.333333,-56.0
YWN,Winisk,Canada,55.25,-85.116667
YWO,Lupin,Canada,65.758889,-111.248889
YWP,Webequie,Canada,53.0,-87.333333
YWQ,Chute-Des-Passes,Canada,43.083333,-79.066667
YWR,White River,Canada,48.583333,-85.25
YWS,Whistler,Canada,50.15,-122.966667
YWY,Wrigley,Canada,63.2,-123.416667
YXC,Cranbrook,Canada,49.5166791,-115.7666653
YXD,Edmonton City Center Airport,Canada,53.566667,-113.516667
YXE,Saskatoon,Canada,52.17003135,-106.6699854
YXF,Snake River,Canada,65.966667,-134.166667
YXH,Medicine Hat,Canada,50.03331423,-110.6833322
YXI,Killaloe,Canada,45.55,-77.416667
YXJ,Fort St John,Canada,56.233333,-120.733333
YXK,Rimouski,Canada,48.43374778,-68.51668115
YXL,Sioux Lookout,Canada,50.26296429,-91.9166482
YXN,Whale Cove,Canada,62.183333,-92.6
YXP,Pangnirtung,Canada,66.13331341,-65.75002832
YXQ,Beaver Creek,Canada,62.0,-133.0
YXR,Earlton,Canada,47.7,-79.85
YXS,Prince George,Canada,53.883333,-122.683333
YXT,Terrace,Canada,54.49999249,-128.5833248
YXU,London (CA),Canada,43.035556,-81.153889
YXX,Abbotsford,Canada,49.05037681,-122.2999874
YXY,Whitehorse,Canada,60.71671897,-135.0499844
YXZ,Wawa Airport,Canada,47.983333,-84.783333
YYA,Big Bay Yacht Club,Canada,50.4,-123.133333
YYB,North Bay,Canada,46.30000205,-79.44999313
YYC,Calgary,Canada,51.08299176,-114.0799982
YYD,Smithers,Canada,54.76659121,-127.1665896
YYE,Fort Nelson,Canada,58.81670575,-122.5329706
YYF,Penticton,Canada,49.50037518,-119.5832799
YYG,Charlottetown,Canada,46.2,-63.1
YYH,Taloyoak,Canada,69.5333126,-93.53331954
YYI,Rivers,Canada,50.033333,-100.2
YYJ,Victoria (CA),Canada,48.65,-123.433333
YYL,Lynn Lake,Canada,56.85002993,-101.0499667
YYM,Cowley,Canada,49.566667,-114.083333
YYN,Swift Current,Canada,50.28373822,-107.766611
YYQ,Churchill,Canada,58.739167,-94.065
YYR,Goose Bay,Canada,53.316667,-60.416667
YYT,St Johns,Canada,47.618611,-52.751944
YYU,Kapuskasing,Canada,49.4166852,-82.43332524
YYW,Armstrong,Canada,50.297222,-88.971944
YYY,Mont Joli,Canada,48.6,-68.2
YYZ,Toronto,Canada,43.677222,-79.630556
YZA,Ashcroft,Canada,50.716667,-121.283333
YZC,Beatton River,Canada,56.166667,-120.416667
YZD,Downsview Airport,Canada,43.7425,-79.465556
YZE,Gore Bay,Canada,45.885278,-82.567778
YZF,Yellowknife,Canada,62.44201418,-114.3969814
YZG,Salluit,Canada,62.18259849,-75.65950098
YZH,Slave Lake,Canada,55.293056,-114.777222
YZM,Buchans,Canada,48.81703188,-56.86659123
YZP,Sandspit,Canada,53.24040529,-131.8332815
YZR,Sarnia,Canada,43.0,-82.3
YZS,Coral Harbour,Canada,64.15377016,-83.17658736
YZT,Port Hardy,Canada,50.71707094,-127.4999801
YZU,Whitecourt,Canada,54.15,-115.683333
YZV,Sept-Iles,Canada,50.216667,-66.266667
YZW,Teslin,Canada,62.0,-133.0
YZX,Greenwood,Canada,44.983333,-64.916667
YZZ,Trail,Canada,46.73,-60.92
ZAA,Alice Arm,Canada,55.483333,-129.483333
ZAC,York Landing,Canada,56.083333,-96.083333
ZBF,Bathurst (CA),Canada,47.6,-65.65
ZBM,Bromont,Canada,45.297222,-72.747222
ZEL,Bella Bella,Canada,52.14840476,-128.1172809
ZEM,East Main,Canada,52.25,-78.516667
ZFA,Faro,Canada,62.0,-133.0
ZFB,Old Fort Bay,Canada,51.583333,-57.916667
ZFD,Fond Du Lac,Canada,59.333333,-107.166667
ZFL,South Trout Lake,Canada,52.833333,-93.666667
ZFM,Fort Mcpherson,Canada,67.433333,-134.883333
ZFN,Tulita Fort Norman,Canada,64.9,-125.583333
ZFW,Fairview,Canada,56.066667,-118.383333
ZGF,Grand Forks,Canada,47.92527753,-97.0324858
ZGI,Gods River,Canada,54.683333,-94.166667
ZGR,Little Grand Rapids,Canada,52.066667,-95.466667
ZGS,Gethsemani,Canada,50.333333,-60.666667
ZHP,High Prairie,Canada,55.433333,-116.483333
ZIF,Fallowfield Railway,Canada,45.416667,-75.7
ZJG,Jenpeg,Canada,54.6,-97.666667
ZJN,Swan River,Canada,62.0,-133.0
ZKE,Kashechewan,Canada,52.281944,-81.678333
ZKG,Kegaska,Canada,50.188889,-61.291667
ZLT,La Tabatiere,Canada,51.0,-59.0
ZMH,108 Mile Ranch,Canada,51.736667,-121.333611
ZMT,Masset,Canada,54.016667,-132.166667
ZNG,Negginan,Canada,53.0,-97.266667
ZNU,Namu,Canada,51.85,-127.866667
ZOF,Ocean Falls,Canada,52.283333,-127.766667
ZPB,Sachigo Lake,Canada,53.816667,-92.133333
ZPO,Pine House,Canada,55.516667,-106.6
ZQS,Queen Charlotte Is,Canada,53.0,-132.0
ZRJ,Round Lake,Canada,52.95,-91.316667
ZRR,Harbour,Canada,67.45,-133.75
ZSJ,Sandy Lake,Canada,53.066667,-93.333333
ZSP,St Paul,Canada,47.75,-69.416667
ZST,Stewart,Canada,55.95,-129.983333
ZSW,Seal Cove,Canada,54.286111,-130.45
ZTB,Tete-a-La Baleine,Canada,50.7,-59.333333
ZTM,Shamattawa,Canada,55.85037518,-92.08327885
ZUC,Ignace,Canada,49.5,-91.833333
ZUM,Churchill Falls,Canada,53.52640851,-63.98067896
ZWL,Wollaston Lake,Canada,58.116667,-103.158333
BVC,Boa Vista Island,Cape Verde,16.083333,-22.833333
BVR,Esperadinha,Cape Verde,-31.666667,-56.583333
MMO,Maio Island,Cape Verde,15.25,-23.166667
MTI,Mosteiros,Cape Verde,15.0,-24.433333
NTO,Santo Antao,Cape Verde,17.05,-25.166667
RAI,Praia,Cape Verde,14.91669802,-23.51668889
SFL,Sao Filipe,Cape Verde,14.9,-24.516667
SID,Sal Island,Cape Verde,16.741389,-22.949444
SNE,Sao Nicolau Island,Cape Verde,16.583333,-24.25
VXE,Sao Vicente Island,Cape Verde,16.85,-24.966667
CYB,Cayman Brac,Cayman Islands,19.716667,-79.825
GCM,Grand Cayman,Cayman Islands,19.292778,-81.357778
LYB,Little Cayman,Cayman Islands,19.666667,-80.083333
AIG,Yalinga,Central African Republic,6.516667,23.25
BBT,Berberati,Central African Republic,4.249958922,15.7800081
BBY,Bambari,Central African Republic,5.761959655,20.66720333
BCF,Bouca,Central African Republic,6.5,18.283333
BGF,Bangui,Central African Republic,4.366644306,18.55828813
BGU,Bangassou,Central African Republic,4.733753681,22.81663285
BIV,Bria,Central African Republic,6.533307921,21.9832987
BMF,Bakouma,Central African Republic,5.733333,22.8
BOP,Bouar,Central African Republic,5.950010192,15.59996741
BOZ,Bozoum,Central African Republic,6.316990376,16.38333044
BSN,Bossangoa,Central African Republic,6.483724384,17.44998368
BTG,Batangafo,Central African Republic,7.3,18.3
CRF,Carnot,Central African Republic,4.933689798,15.8666178
GDA,Gounda,Central African Republic,9.333333,21.183333
GDI,Gordil,Central African Republic,9.733333,21.583333
IMO,Zemio,Central African Republic,5.033657856,25.13328731
IRO,Birao,Central African Republic,10.28369916,22.78330155
KOL,Koumala,Central African Republic,8.5,21.25
KWD,Kawadjia,Central African Republic,-1.95,124.966667
NDL,Ndele,Central African Republic,8.409136575,20.65304398
ODA,Ouadda,Central African Republic,8.06709027,22.40001745
ODJ,Ouanda Djalle,Central African Republic,8.916667,22.583333
RFA,Rafai,Central African Republic,4.988611,23.927778
AEH,Abecher,Chad,13.85,20.85
AKM,Zakouma,Chad,10.883333,19.816667
AMC,Am Timan,Chad,11.03329165,20.28329911
AMO,Mao,Chad,14.11943402,15.31331824
AOD,Abou Deia,Chad,11.466667,19.283333
ATV,Ati,Chad,13.21706016,18.33328894
BKR,Bokoro,Chad,12.833333,17.25
FYT,Faya,Chad,17.933333,19.133333
LTC,Lai,Chad,9.395001123,16.30500349
MEF,Melfi,Chad,11.05,17.95
MQQ,Moundou,Chad,8.549980691,16.09001501
MVO,Mongo,Chad,12.18373822,18.6999849
NDJ,N'djamena,Chad,12.133333,15.033333
OGR,Bongor,Chad,10.28594708,15.38716386
OUM,Oum Hadjer,Chad,13.30041424,19.68333573
OUT,Bousso,Chad,10.483333,16.716667
PLF,Pala,Chad,9.350422789,14.96662105
SRH,Sarh,Chad,9.149969909,18.39002966
ANF,Antofagasta,Chile,-23.64999184,-70.40000289
ARI,Arica,Chile,-18.47,-70.3
BBA,Balmaceda,Chile,-45.916667,-71.7
CCH,Chile Chico,Chile,-46.55,-71.7
CCP,Concepcion,Chile,-36.82,-73.0
CJC,Calama,Chile,-22.45001341,-68.91998987
CNR,Chanaral,Chile,-29.03002521,-71.43001754
COW,Coquimbo,Chile,-29.95291461,-71.34361454
CPO,Copiapo,Chile,-27.35999795,-70.33998071
ESR,El Salvador,Chile,-26.3,-69.766667
FFU,Futaleufu,Chile,-43.183333,-71.816667
FRT,Frutillar,Chile,-19.416667,-65.366667
GXQ,Ten. Vidal,Chile,-45.5,-72.516667
IPC,Easter Island,Chile,-27.164722,-109.416667
IQQ,Iquique,Chile,-20.24999266,-70.12996769
KNA,Vina del Mar,Chile,-33.02998777,-71.53998499
LSC,La Serena,Chile,-29.89999795,-71.24997685
LSQ,Los Angeles,Chile,-37.46000161,-72.35998661
MHC,Castro,Chile,-24.79002562,-50.00998132
OVL,Ovalle,Chile,-30.59003335,-71.20005742
PMC,Puerto Montt,Chile,-41.4699894,-72.92997766
PNT,Teniente J. Gallardo,Chile,-51.683333,-72.516667
PUQ,Punta Arenas,Chile,-53.16498615,-70.93999577
PUX,Puerto Varas,Chile,-41.32999795,-72.98999984
SCL,Santiago (CL),Chile,-33.559722,-70.7
SMB,Cerro Sombrero,Chile,-52.666667,-69.266667
TLX,Talca,Chile,-35.45500771,-71.67000289
TOQ,Barriles,Chile,-22.083333,-70.2
TTC,Taltal,Chile,-25.40001422,-70.47002446
ULC,Los Cerrillos,Chile,19.333333,-72.2
VAP,Valparaiso,Chile,-33.04776447,-71.62101363
VLR,Vallenar,Chile,-28.57000161,-70.76000676
WAP,Alto Palena,Chile,-43.633333,-71.816667
WCA,Gamboa,Chile,-42.5,-73.75
WCH,Chaiten,Chile,-42.933333,-72.716667
WPA,Puerto Aisen,Chile,-45.3999304,-72.70001754
WPR,Porvenir,Chile,-53.333333,-70.341667
WPU,Puerto Williams,Chile,-54.93330198,-67.61671025
YAI,Chillan,Chile,-36.60000242,-72.10599695
ZAL,Valdivia,Chile,-39.7950012,-73.24502303
ZCO,Temuco,Chile,-38.73000161,-72.57999903
ZOS,Osorno,Chile,-40.56999266,-73.1600153
ZPC,Pucon,Chile,-39.283333,-71.933333
ZUD,Ancud,Chile,-41.86996499,-73.82997441
AAT,Altay,China,46.39612022,95.8450435
ACX,Xingyi,China,25.09041811,104.8900211
AEB,Baise,China,23.9,106.6
AKA,Ankang,China,32.67998069,109.0200016
AKU,Aksu,China,41.15000633,80.25002641
AOG,Anshan,China,41.11502138,122.9400305
AQG,Anqing,China,30.49995872,117.0500024
AVA,Anshun,China,26.25039899,105.9300093
AXF,Alxa Left Banner,China,38.8,105.66
AYN,Anyang,China,36.07997988,114.3500122
BAV,Baotou,China,40.65220725,109.8220198
BFJ,Bijie,China,27.0,105.0
BFU,Bengbu,China,32.94999005,117.330037
BHY,Beihai,China,21.4804059,109.1000484
BPE,Qinhaungdao,China,40.0,119.0
BPL,Bole,China,44.85,82.05
BPX,Qamdo/Changdu,China,30.539722,97.108889
BSD,Baoshan,China,25.11997703,99.15000972
CAN,Guangzhou,China,23.1449813,113.3250101
CGD,Changde,China,29.02999676,111.6800459
CGO,Zhengzhou,China,34.75499615,113.6650927
CGQ,Changchun,China,43.86500856,125.3399873
CHG,Chaoyang,China,41.55042116,120.4199776
CHW,Jiuhuang,China,39.766667,98.483333
CIF,Chifeng,China,42.27001548,118.9499898
CIH,Changzhi,China,36.18387534,113.1052819
CKG,Chongqing,China,29.56497703,106.5949816
CNI,Changhai,China,39.266667,122.516667
CSX,Changsha,China,28.19996991,112.969993
CTU,Chengdu,China,30.67000002,104.0700195
CZX,Changzhou,China,31.77998395,119.9699792
DAT,Datong,China,40.08001996,113.2999987
DAX,Dazhou,China,31.3,107.5
DCY,Daocheng,China,29.0,100.3
DDG,Dandong,China,40.14360781,124.3935852
DGM,Dongguan,China,23.0488889,113.7447222
DIG,Deqen,China,26.125556,109.3075
DLC,Dalian,China,38.92283839,121.6298308
DLU,Dali,China,34.79525209,109.937775
DNH,Dunhuang,China,40.14267763,94.66201493
DOY,Dongying,China,37.454444,118.471944
DQA,Daqing,China,46.57995913,125.0000081
DSN,Ordos,China,39.85,110.033333
DYG,Zhangjiajie,China,29.133333,110.483333
DZU,Dazu,China,29.7,105.8
EJN,Ejina Banner,China,41.96,101.07
ENH,Enshi,China,30.283333,109.316667
ENY,Yan'an,China,36.59,109.49
ERL,Erenhot,China,43.66155845,111.9654549
FOC,Fuzhou,China,26.07999595,119.3000459
FUG,Fuyang,China,30.0533333,119.9519444
FUO,Foshan,China,23.03005292,113.1200097
FYJ,Fuyuan,China,48.36,134.3
FYN,Fuyun,China,45.0,90.008333
GHN,Guanghan,China,30.466667,106.65
GOQ,Golmud,China,36.416626,94.88334509
GXH,Xiahe,China,35.0,102.0
GYS,Guangyuan,China,32.42999595,105.870013
GYU,Guyuan,China,36.0,106.2
HAK,Haikou,China,20.05000226,110.3200256
HCJ,Hechi,China,23.09653465,109.6091129
HDG,Handan,China,36.5799752,114.4799784
HEK,Heihe,China,50.25001935,127.4460087
HET,Hohhot,China,40.81997479,111.6599955
HFE,Hefei,China,31.85003135,117.2800142
HGH,Hangzhou,China,30.24997398,120.1700187
HHA,Huanghua International,China,28.189167,113.219722
HIA,Huai'an,China,33.6,119.02
HJJ,Huaihua,China,27.56,110.0
HLD,Hailar,China,49.19998008,119.7000215
HLH,Ulanhot,China,46.08001548,122.0800313
HMI,Hami,China,42.82698407,93.51500484
HNY,Hengyang,China,26.88002464,112.5900162
HPG,Shennongjia,China,31.4,110.68
HRB,Harbin,China,45.74998395,126.6499849
HSC,Shaoguan,China,24.79997072,113.5799816
HSN,Zhoushan,China,29.935,122.359167
HTN,Hotan,China,37.09971092,79.92694535
HUZ,Huizhou,China,23.07997235,114.3999833
HXD,Delingha,China,37.37,97.36
HYN,Taizhou,China,32.4904057,119.9000093
HZG,Hanzhong,China,33.12997906,107.0299939
HZH,Liping,China,32.783333,106.666667
INC,Yinchuan,China,38.46797365,106.2730375
IQM,Qiemo,China,38.133333,85.533333
IQN,Qingyang,China,36.1,107.783333
JDZ,Jingdezhen,China,29.27042137,117.1800203
JGD,Jiagedaqi,China,50.43,124.12
JGN,Jiayuguan,China,39.82000999,98.29998409
JGS,Ji'an,China,27.09,114.97
JHG,Jinghong,China,22.016667,100.8
JIC,Jinchang,China,38.49569806,102.1739078
JIL,Jilin,China,43.84997072,126.5500427
JIQ,Qianjiang,China,30.4,112.9
JIU,Jiujiang,China,29.72997988,115.9800419
JJN,Quanzhou,China,24.9000163,118.5799865
JMU,Jiamusi,China,46.83002138,130.3500175
JNG,Jining,China,35.40040895,116.5500329
JNZ,Jinzhou,China,41.12036989,121.1000394
JUH,Chizhou,China,30.66,117.49
JUZ,Quzhou,China,28.97043968,118.8699947
JXA,Jixi,China,45.29995974,130.9700313
JZH,Jiuzhaigou,China,32.836944,103.681944
KCA,Kuqa,China,41.72774884,82.93637406
KGT,Kangding,China,30.0,101.96
KHG,Kashi,China,39.666667,76.016667
KHN,Nanchang,China,28.67999229,115.8799963
KJH,Huang Ping,China,34.43,108.75
KMG,Kunming,China,25.06998008,102.6799751
KOW,Ganzhou,China,25.91997988,114.9500272
KRL,Korla,China,41.72999676,86.15002803
KRY,Karamay,China,45.58994204,84.8599259
KWE,Guiyang,China,26.58004295,106.7200386
KWL,Guilin,China,25.2799931,110.280028
LCX,Longyan,China,25.18041262,117.0300036
LDS,Yichun,China,47.69994244,128.8999768
LHK,Guanghua,China,32.266667,111.633333
LHW,Lanzhou Zhongchuan Apt,China,36.016667,103.75
LIA,Liangping,China,30.816667,107.7
LJG,Lijiang,China,26.80000368,100.2665824
LLB,Libo,China,25.41,107.88
LLF,Yongzhou,China,26.23037437,111.6199979
LLV,LuLiang,China,25.03,103.67
LNJ,Lincang,China,23.9,100.033333
LPF,Liupanshui,China,26.6,104.8
LUM,Mangshi,China,24.483333,98.516667
LXA,Lhasa/Lasa,China,29.293056,90.900278
LXI,Linxi,China,43.51707115,118.0333016
LYA,Luoyang,China,34.67998781,112.4700752
LYG,Lianyungang,China,34.60043194,119.170028
LYI,Linyi,China,35.07998924,118.329976
LZD,Lanzhoudong,China,36.016667,103.683333
LZH,Liuzhou,China,24.28000246,109.2500134
LZO,Luzhou,China,28.87998008,105.380017
LZY,Nyingchi/Linzhi,China,29.64,94.36
MDG,Mudanjiang,China,44.6,129.5
MIG,Mianyang,China,31.46997703,104.7699768
MXZ,Meixian,China,24.35,116.133333
NAO,Nanchong,China,30.78043256,106.1299971
NAY,Beijing,China,40.25,116.5
NBS,Baishan,China,41.90001223,126.4299983
NDG,Qiqihar,China,47.34497703,123.9899922
NGB,Ningbo,China,29.87997072,121.5500378
NGQ,Shiquande,China,29.0,106.0
NKG,Nanjing,China,32.05001914,118.7799743
NLT,Xinyuan,China,37.18,99.0
NNG,Nanning,China,22.81998822,108.3200443
NNY,Nanyang,China,33.00040041,112.5300199
NTG,Nantong,China,32.0303821,120.8250175
NZH,Manzhouli,China,49.59998151,117.4299792
OHE,Mohe,China,52.98,122.54
PEK,Beijing,China,40.063333,116.584444
PNJ,Peng Lai/Sha He Kou,China,42.446389,119.573611
PVG,Shanghai,China,31.143333,121.805278
PZI,Panzhihua,China,26.5499931,101.7300073
RHT,Alxa Right Banner,China,39.2,101.67
RKZ,Xigaze/rikaze,China,29.27,88.89
RLK,Bayannur,China,40.74,107.39
RUG,Rugao,China,32.388333,120.555278
SHA,Shanghai,China,31.2,121.341111
SHE,Shenyang,China,41.871667,123.433333
SHF,Shanhaiguan,China,39.983333,119.75
SHP,Qinhuangdao,China,39.93036501,119.6200264
SHS,Shashi,China,30.32002138,112.2299865
SIA,Xiguan,China,34.366667,108.7
SJW,Shijiazhuang,China,38.05,114.466667
SWA,Shantou,China,23.37000633,116.6700256
SXJ,Shanshan,China,42.816667,90.233333
SYM,Simao,China,22.78068829,100.9781669
SYX,Sanya,China,18.25910454,109.5040317
SZV,Suzhou,China,31.30047833,120.620017
SZX,Shenzhen,China,22.55237051,114.1221231
TAO,Qingdao,China,36.08997927,120.3300089
TCG,Tacheng,China,46.75002626,82.95001664
TCZ,Tengchong,China,25.03331565,98.46658891
TEN,Tongren,China,27.68041506,109.1300207
TGO,Tongliao,China,43.61995892,122.2699939
THQ,Tianshui,China,34.60001853,105.9199841
TNA,Jinan,China,36.67498232,116.9950187
TNH,Tonghua,China,41.67997398,125.7499882
TSN,Tianjin,China,39.13002626,117.2000191
TVS,Tangshan,China,39.62433718,118.194377
TXN,Huangshan,China,29.711389,118.3125
TYN,Taiyuan,China,37.87501243,112.5450577
URC,Urumqi,China,43.80501223,87.57500565
UYN,Yulin,China,22.62997398,110.1500101
WEF,Weifang,China,36.7204059,119.1001098
WEH,Weihai,China,37.49997072,122.0999784
WHU,Wuhu,China,31.3504236,118.3699735
WNH,Wenshan,China,23.3723576,104.2496984
WNZ,Wenzhou,China,28.0199809,120.6500927
WUA,Wuhai,China,39.66469647,106.8122294
WUH,Wuhan,China,30.58003135,114.270017
WUS,Wuyishan,China,27.75,118.04
WUX,Wuxi,China,31.57999615,120.2999849
WUZ,Wuzhou,China,23.48002545,111.3200162
WXN,Wanzhou,China,30.81999086,108.4000394
XEN,Xingcheng,China,40.733333,118.616667
XFN,Xiangyang,China,32.05,112.016667
XIC,Xichang,China,27.88001528,102.2999983
XIL,Xilinhot,China,43.94433189,116.0443274
XIN,Xingning,China,24.15,115.75
XIY,Xi'an,China,34.447222,108.751667
XMN,Xiamen,China,24.44999208,118.080017
XNN,Xining,China,36.6199986,101.7700048
XNT,Xingtai,China,37.071944,114.484444
XTA,Econ/Tech Dev. Area,China,39.142222,117.176667
XTF,Port Free Trade Zone,China,39.142222,117.176667
XUZ,Xuzhou,China,34.28001223,117.1800203
YBP,Yibin,China,28.7699868,104.5700406
YCU,Yuncheng,China,35.183333,111.05
YIC,Yichun (Jiangxi),China,27.82,114.42
YIE,Aershan,China,47.18,119.94
YIH,Yichang,China,30.69997235,111.2800187
YIN,Yining,China,43.90001935,81.35001094
YIW,Yiwu,China,29.266667,120.05
YLN,Yilan,China,24.75,121.75
YNJ,Yanji,China,42.88230369,129.5127559
YNT,Yantai,China,37.53040814,121.4000211
YNZ,Yancheng,China,33.3855556,120.1252778
YTY,Yangzhou,China,32.39999778,119.4300122
YUA,Yuanmou,China,25.65,101.916667
YUS,Yushu,China,44.84,126.53
YZY,Zhangye,China,38.9299868,100.4500337
ZAS,Shunde Ferry,China,22.840833,113.245278
ZAT,Zhaotong,China,27.316667,103.8
ZAX,Pan Yu Ferry,China,25.083333,119.05
ZBD,Jiang Men Ferry,China,28.739167,118.622778
ZBZ,Xin Hui Ferry,China,44.018333,114.955556
ZCA,Tai Shan,China,36.5,117.333333
ZCU,She Kou Ferry,China,22.466667,114.433333
ZEF,Nanhai Ferry,China,39.966667,119.783333
ZGC,Zhongchuan,China,36.016667,103.716667
ZGN,Zhongshan Ferry Port,China,22.516667,113.366667
ZHA,Zhanjiang,China,21.19998374,110.3800219
ZHY,Zhongwei,China,37.5,105.2
ZIY,Lianhuashan Port,China,23.216667,113.433333
ZQZ,Zhangjiakou,China,40.83000002,114.9299768
ZTI,Humen Port,China,22.826667,113.671667
ZUH,Zhuhai,China,22.2769444,113.5677778
ZYI,Zunyi,China,27.70002626,106.9200264
ZYK,Shekou Port,China,30.7,114.35
XCH,Christmas Island,"Christmas Island, Indian Ocean",-10.45,105.69
CCK,Cocos Islands,Cocos (keeling) Islands,-12.183333,96.833333
ACD,Acandi,Colombia,8.5,-73.633333
ACL,Aguaclara,Colombia,4.75,-73.0
ACM,Arica,Colombia,-18.50002195,-70.28998377
ACR,Araracuara,Colombia,-0.383333,-72.3
ADN,Andes,Colombia,5.666667,-75.883333
ADZ,San Andres Island,Colombia,12.583333,-81.7
AFI,Amalfi,Colombia,6.916667,-75.066667
API,Apiay,Colombia,4.068889,-73.051944
APO,Apartado,Colombia,7.033333,-77.2
ARF,Acaricuara,Colombia,0.533333,-70.133333
ARO,Arboletas,Colombia,8.866667,-76.433333
ARQ,Arauquita,Colombia,7.036111,-71.440278
AUC,Arauca,Colombia,7.090664082,-70.76163456
AXM,Armenia,Colombia,4.534282653,-75.68112757
AYA,Ayapel,Colombia,8.330407531,-75.15002303
AYC,Ayacucho,Colombia,-13.17502399,-74.2199506
AYG,Yaguara,Colombia,1.544167,-73.933333
AYI,Yari,Colombia,-0.383333,-72.266667
AZT,Zapatoca,Colombia,6.816667,-73.283333
BAC,Barranca De Upia,Colombia,4.583333,-72.966667
BAQ,Barranquilla,Colombia,10.95998863,-74.79996688
BGA,Bucaramanga,Colombia,7.1300932,-73.12588302
BHF,Bahia Cupica,Colombia,6.55,-77.333333
BOG,Bogota,Colombia,4.596423563,-74.08334396
BSC,Bahia Solano,Colombia,6.183333,-77.4
BUN,Buenaventura,Colombia,3.872402425,-77.05045329
CAQ,Caucasia,Colombia,7.6,-75.25
CCO,Carimagua,Colombia,4.566667,-71.333333
CIM,Cimitarra,Colombia,6.483333,-74.033333
CJD,Candilejas,Colombia,2.066667,-74.583333
CLO,Cali,Colombia,3.399959126,-76.49996647
COG,Mandinga,Colombia,5.1,-76.616667
CPB,Capurgana,Colombia,8.633333,-77.333333
CPL,Chaparral,Colombia,3.7,-75.75
CQT,Caquetania,Colombia,2.033333,-74.216667
CRC,Cartago,Colombia,4.749980081,-75.91002832
CSR,Casuarito,Colombia,5.833333,-68.133333
CTG,Cartagena,Colombia,10.0,-75.0
CUC,Cucuta,Colombia,7.920019144,-72.51997685
CUI,Currillo,Colombia,4.666667,-72.0
CUO,Caruru,Colombia,1.033333,-71.233333
CVE,Covenas,Colombia,9.4,-75.733333
CZU,Corozal (CO),Colombia,9.333333,-75.283333
